[{"name":"7-11 德芝門市","address":"台北市士林區士東路266巷5弄18號20號1樓","city":"台北市","area":"士林區","long":25.1124191,"lat":121.5375376,"tel":"0228347532","company":"7-11","cupName":"OPENiECO循環杯"},{"name":"7-11 大饌門市","address":"台北市士林區大東路35號","city":"台北市","area":"士林區","long":25.089366,"lat":121.525236,"tel":"0228838865","company":"7-11","cupName":"OPENiECO循環杯"},{"name":"7-11 銘傳門市","address":"台北市士林區中山北路五段250號","city":"台北市","area":"士林區","long":25.0862468,"lat":121.5284736,"tel":"0228836632","company":"7-11","cupName":"OPENiECO循環杯"},{"name":"7-11 新忠誠門市","address":"台北市士林區中山北路六段18,20號號 1樓","city":"台北市","area":"士林區","long":25.1040319,"lat":121.5267539,"tel":"0228314978","company":"7-11","cupName":"OPENiECO循環杯"},{"name":"7-11 福榮門市","address":"台北市士林區中正路220號222號","city":"台北市","area":"士林區","long":25.0955227,"lat":121.5260776,"tel":"0228330676","company":"7-11","cupName":"OPENiECO循環杯"},{"name":"7-11 天越門市","address":"台北市士林區天母東路50巷25號","city":"台北市","area":"士林區","long":25.1168291,"lat":121.5332884,"tel":"0228724484","company":"7-11","cupName":"OPENiECO循環杯"},{"name":"7-11 天美門市","address":"台北市士林區天母東路8巷96號98號","city":"台北市","area":"士林區","long":25.1143705,"lat":121.5301134,"tel":"0228762701","company":"7-11","cupName":"OPENiECO循環杯"},{"name":"7-11 天福門市","address":"台北市士林區天母東路8巷41弄1號","city":"台北市","area":"士林區","long":25.1164132,"lat":121.5316183,"tel":"0228762502","company":"7-11","cupName":"OPENiECO循環杯"},{"name":"7-11 丹樺門市","address":"台北市士林區文林路530號","city":"台北市","area":"士林區","long":25.0972711,"lat":121.5241022,"tel":"0228314649","company":"7-11","cupName":"OPENiECO循環杯"},{"name":"7-11 至誠門市","address":"台北市士林區至誠路二段31號","city":"台北市","area":"士林區","long":25.1017903,"lat":121.5292854,"tel":"0228359740","company":"7-11","cupName":"OPENiECO循環杯"},{"name":"7-11 新天強門市","address":"台北市士林區克強路11號克強路11及11-1號","city":"台北市","area":"士林區","long":25.1087239,"lat":121.5244387,"tel":"0228385947","company":"7-11","cupName":"OPENiECO循環杯"},{"name":"7-11 福陽門市","address":"台北市士林區延平北路五段269號271號","city":"台北市","area":"士林區","long":25.085288,"lat":121.5095718,"tel":"0228162119","company":"7-11","cupName":"OPENiECO循環杯"},{"name":"7-11 海光門市","address":"台北市士林區延平北路五段35號37號","city":"台北市","area":"士林區","long":25.0798179,"lat":121.5108432,"tel":"0228167812","company":"7-11","cupName":"OPENiECO循環杯"},{"name":"7-11 集鑫門市","address":"台北市士林區延平北路六段231號229號","city":"台北市","area":"士林區","long":25.0893049,"lat":121.5050264,"tel":"0228113784","company":"7-11","cupName":"OPENiECO循環杯"},{"name":"7-11 誠義門市","address":"台北市士林區忠誠路一段126號","city":"台北市","area":"士林區","long":25.1057868,"lat":121.5287577,"tel":"0228353013","company":"7-11","cupName":"OPENiECO循環杯"},{"name":"7-11 社中門市","address":"台北市士林區社中街320號322號1樓","city":"台北市","area":"士林區","long":25.0923244,"lat":121.5051899,"tel":"0228119270","company":"7-11","cupName":"OPENiECO循環杯"},{"name":"7-11 豐基門市","address":"台北市士林區基河路368號","city":"台北市","area":"士林區","long":25.0947958,"lat":121.5184332,"tel":"0228344187","company":"7-11","cupName":"OPENiECO循環杯"},{"name":"7-11 新劍潭門市","address":"台北市士林區福港街246號248號","city":"台北市","area":"士林區","long":25.0843402,"lat":121.5174649,"tel":"0228882016","company":"7-11","cupName":"OPENiECO循環杯"},{"name":"7-11 東吳門市","address":"台北市士林區臨溪路70號","city":"台北市","area":"士林區","long":25.0940751,"lat":121.5466284,"tel":"0228835820","company":"7-11","cupName":"OPENiECO循環杯"},{"name":"7-11 鑫太原門市","address":"台北市大同區太原路40號4244號","city":"台北市","area":"大同區","long":25.0504208,"lat":121.5151205,"tel":"0225591974","company":"7-11","cupName":"OPENiECO循環杯"},{"name":"7-11 三德門市","address":"台北市大同區承德路三段55號","city":"台北市","area":"大同區","long":25.0652109,"lat":121.5185663,"tel":"0225955432","company":"7-11","cupName":"OPENiECO循環杯"},{"name":"7-11 塔城門市","address":"台北市大同區長安西路271號1樓及273巷2號","city":"台北市","area":"大同區","long":25.0521586,"lat":121.5106688,"tel":"0225584706","company":"7-11","cupName":"OPENiECO循環杯"},{"name":"7-11 酒泉門市","address":"台北市大同區重慶北路三段258、260號262號","city":"台北市","area":"大同區","long":25.0714299,"lat":121.5135643,"tel":"0225959849","company":"7-11","cupName":"OPENiECO循環杯"},{"name":"7-11 敦信門市","address":"台北市大安區仁愛路四段122巷50號1樓","city":"台北市","area":"大安區","long":25.0346215,"lat":121.5501897,"tel":"0227556047","company":"7-11","cupName":"OPENiECO循環杯"},{"name":"7-11 合億門市","address":"台北市大安區和平東路三段1巷51號","city":"台北市","area":"大安區","long":25.0266955,"lat":121.5469236,"tel":"0227014931","company":"7-11","cupName":"OPENiECO循環杯"},{"name":"7-11 長星門市","address":"台北市大安區基隆路三段85號","city":"台北市","area":"大安區","long":25.0171854,"lat":121.5448444,"tel":"0227395493","company":"7-11","cupName":"OPENiECO循環杯"},{"name":"7-11 喜悅門市","address":"台北市大安區復興南路二段82-1及82-2號復興南路二段82-1及822號","city":"台北市","area":"大安區","long":25.030942,"lat":121.5432543,"tel":"0227067601","company":"7-11","cupName":"OPENiECO循環杯"},{"name":"7-11 大台門市","address":"台北市大安區羅斯福路三段333巷18號20號","city":"台北市","area":"大安區","long":25.017604,"lat":121.532554,"tel":"0223620204","company":"7-11","cupName":"OPENiECO循環杯"},{"name":"7-11 鑫東一門市","address":"台北市中山區一江街11號13號","city":"台北市","area":"中山區","long":25.0511158,"lat":121.5316259,"tel":"0225815255","company":"7-11","cupName":"OPENiECO循環杯"},{"name":"7-11 實踐大學門市","address":"台北市中山區大直街70號1樓","city":"台北市","area":"中山區","long":25.0837391,"lat":121.546091,"tel":"0285091737","company":"7-11","cupName":"OPENiECO循環杯"},{"name":"7-11 大吉門市","address":"台北市中山區吉林路99號1 樓","city":"台北市","area":"中山區","long":25.0559609,"lat":121.5303958,"tel":"0225630883","company":"7-11","cupName":"OPENiECO循環杯"},{"name":"7-11 歡唱門市","address":"台北市中山區林森北路310巷10號","city":"台北市","area":"中山區","long":25.0561222,"lat":121.5247748,"tel":"0225719203","company":"7-11","cupName":"OPENiECO循環杯"},{"name":"7-11 林森北門市","address":"台北市中山區林森北路380-1號","city":"台北市","area":"中山區","long":25.0584307,"lat":121.525439,"tel":"0225362285","company":"7-11","cupName":"OPENiECO循環杯"},{"name":"7-11 京都門市","address":"台北市中山區林森北路411號","city":"台北市","area":"中山區","long":25.0596432,"lat":121.5256994,"tel":"0225636575","company":"7-11","cupName":"OPENiECO循環杯"},{"name":"7-11 鑫長安門市","address":"台北市中山區長安東路一段53巷1-3號","city":"台北市","area":"中山區","long":25.049139,"lat":121.52655,"tel":"0225813841","company":"7-11","cupName":"OPENiECO循環杯"},{"name":"7-11 鑫安江門市","address":"台北市中山區長安東路二段178號178-1號1樓","city":"台北市","area":"中山區","long":25.0482224,"lat":121.5406508,"tel":"0227774809","company":"7-11","cupName":"OPENiECO循環杯"},{"name":"7-11 江東門市","address":"台北市中山區長安東路二段 45-1號","city":"台北市","area":"中山區","long":25.0485802,"lat":121.5317649,"tel":"0225223791","company":"7-11","cupName":"OPENiECO循環杯"},{"name":"7-11 京山門市","address":"台北市中山區南京東路二段100號","city":"台北市","area":"中山區","long":25.0518174,"lat":121.5318481,"tel":"0225377819","company":"7-11","cupName":"OPENiECO循環杯"},{"name":"7-11 松盛門市","address":"台北市中山區南京東路二段115巷1號","city":"台北市","area":"中山區","long":25.0526365,"lat":121.5336907,"tel":"0225022910","company":"7-11","cupName":"OPENiECO循環杯"},{"name":"7-11 吉鑫門市","address":"台北市中山區南京東路二段11號1樓","city":"台北市","area":"中山區","long":25.0523055,"lat":121.5284519,"tel":"0225420316","company":"7-11","cupName":"OPENiECO循環杯"},{"name":"7-11 國京門市","address":"台北市中山區南京東路三段21號","city":"台北市","area":"中山區","long":25.0522004,"lat":121.5377693,"tel":"0225075809","company":"7-11","cupName":"OPENiECO循環杯"},{"name":"7-11 榮鑫門市","address":"台北市中山區建國北路三段89號91號1樓","city":"台北市","area":"中山區","long":25.0656223,"lat":121.5368585,"tel":"0225069116","company":"7-11","cupName":"OPENiECO循環杯"},{"name":"7-11 薇美門市","address":"台北市中山區敬業三路11號1樓","city":"台北市","area":"中山區","long":25.0837551,"lat":121.5556224,"tel":"0285026219","company":"7-11","cupName":"OPENiECO循環杯"},{"name":"7-11 萬濠門市","address":"台北市中山區敬業四路1號1樓","city":"台北市","area":"中山區","long":25.0803095,"lat":121.5583395,"tel":"0285029120","company":"7-11","cupName":"OPENiECO循環杯"},{"name":"7-11 稻江門市","address":"台北市中山區新生北路三段35號","city":"台北市","area":"中山區","long":25.0649448,"lat":121.5280971,"tel":"0225850268","company":"7-11","cupName":"OPENiECO循環杯"},{"name":"7-11 鑫錦州門市","address":"台北市中山區錦州街263號","city":"台北市","area":"中山區","long":25.0603795,"lat":121.5348979,"tel":"0225122462","company":"7-11","cupName":"OPENiECO循環杯"},{"name":"7-11 大埔門市","address":"台北市中正區和平西路二段152號152之1154號154之1號","city":"台北市","area":"中正區","long":25.0329793,"lat":121.5055592,"tel":"0223024530","company":"7-11","cupName":"OPENiECO循環杯"},{"name":"7-11 慶城門市","address":"台北市中正區武昌街一段18號1樓","city":"台北市","area":"中正區","long":25.0439381,"lat":121.5125261,"tel":"0223719815","company":"7-11","cupName":"OPENiECO循環杯"},{"name":"7-11 杭信門市","address":"台北市中正區信義路二段15號1樓","city":"台北市","area":"中正區","long":25.0351906,"lat":121.5253125,"tel":"0223584603","company":"7-11","cupName":"OPENiECO循環杯"},{"name":"7-11 博源門市","address":"台北市中正區思源街16號","city":"台北市","area":"中正區","long":25.0143751,"lat":121.5308937,"tel":"0223684419","company":"7-11","cupName":"OPENiECO循環杯"},{"name":"7-11 鑫華福門市","address":"台北市中正區漢口街一段36號","city":"台北市","area":"中正區","long":25.0450845,"lat":121.5137894,"tel":"0223826193","company":"7-11","cupName":"OPENiECO循環杯"},{"name":"7-11 長鴻門市","address":"台北市內湖區大湖山莊街219巷6號8號1樓","city":"台北市","area":"內湖區","long":25.0884695,"lat":121.5994274,"tel":"0287910970","company":"7-11","cupName":"OPENiECO循環杯"},{"name":"7-11 福湖門市","address":"台北市內湖區19弄1號內湖路一段411巷17號","city":"台北市","area":"內湖區","long":25.0824314,"lat":121.5712893,"tel":"0226274816","company":"7-11","cupName":"OPENiECO循環杯"},{"name":"7-11 碧綠門市","address":"台北市內湖區內湖路三段59巷1號6163號","city":"台北市","area":"內湖區","long":25.0860478,"lat":121.5920142,"tel":"0287917023","company":"7-11","cupName":"OPENiECO循環杯"},{"name":"7-11 民醫門市","address":"台北市內湖區民權東路六段123巷22號22之1號","city":"台北市","area":"內湖區","long":25.0698006,"lat":121.5927177,"tel":"0287925605","company":"7-11","cupName":"OPENiECO循環杯"},{"name":"7-11 寶湖門市","address":"台北市內湖區民權東路六段180巷6號","city":"台北市","area":"內湖區","long":25.0682923,"lat":121.5919198,"tel":"0287912647","company":"7-11","cupName":"OPENiECO循環杯"},{"name":"7-11 安保門市","address":"台北市內湖區安康路28號","city":"台北市","area":"內湖區","long":25.0623914,"lat":121.5938774,"tel":"0227953964","company":"7-11","cupName":"OPENiECO循環杯"},{"name":"7-11 成湖門市","address":"台北市內湖區成功路四段346號","city":"台北市","area":"內湖區","long":25.0849546,"lat":121.5997712,"tel":"0287910570","company":"7-11","cupName":"OPENiECO循環杯"},{"name":"7-11 秀湖門市","address":"台北市內湖區成功路四段359號1樓","city":"台北市","area":"內湖區","long":25.0844483,"lat":121.6000629,"tel":"0227960399","company":"7-11","cupName":"OPENiECO循環杯"},{"name":"7-11 華經門市","address":"台北市內湖區行忠路30號","city":"台北市","area":"內湖區","long":25.0652298,"lat":121.577651,"tel":"0227906651","company":"7-11","cupName":"OPENiECO循環杯"},{"name":"7-11 彩龍門市","address":"台北市內湖區行善路35號1F","city":"台北市","area":"內湖區","long":25.0568326,"lat":121.5763997,"tel":"0287902990","company":"7-11","cupName":"OPENiECO循環杯"},{"name":"7-11 行善門市","address":"台北市內湖區新湖二路369號行善路468號1樓","city":"台北市","area":"內湖區","long":25.064755,"lat":121.5852911,"tel":"0227904465","company":"7-11","cupName":"OPENiECO循環杯"},{"name":"7-11 權金門市","address":"台北市內湖區金湖路405號1樓","city":"台北市","area":"內湖區","long":25.0733071,"lat":121.6043905,"tel":"0226324440","company":"7-11","cupName":"OPENiECO循環杯"},{"name":"7-11 金碧門市","address":"台北市內湖區金龍路219號","city":"台北市","area":"內湖區","long":25.0883528,"lat":121.5868787,"tel":"0227900454","company":"7-11","cupName":"OPENiECO循環杯"},{"name":"7-11 金雲門市","address":"台北市內湖區星雲街136號","city":"台北市","area":"內湖區","long":25.0797897,"lat":121.594971,"tel":"0227945804","company":"7-11","cupName":"OPENiECO循環杯"},{"name":"7-11 星成門市","address":"台北市內湖區星雲街17號17-1號","city":"台北市","area":"內湖區","long":25.078128,"lat":121.590576,"tel":"0227942674","company":"7-11","cupName":"OPENiECO循環杯"},{"name":"7-11 墘運門市","address":"台北市內湖區洲子街12號1 樓","city":"台北市","area":"內湖區","long":25.0781433,"lat":121.5748008,"tel":"0287515031","company":"7-11","cupName":"OPENiECO循環杯"},{"name":"7-11 德馨門市","address":"台北市內湖區洲子街46號","city":"台北市","area":"內湖區","long":25.0789752,"lat":121.5733352,"tel":"0287511020","company":"7-11","cupName":"OPENiECO循環杯"},{"name":"7-11 德瑞門市","address":"台北市內湖區洲子街70號1樓","city":"台北市","area":"內湖區","long":25.0793168,"lat":121.5719188,"tel":"0287515167","company":"7-11","cupName":"OPENiECO循環杯"},{"name":"7-11 湖光門市","address":"台北市內湖區基湖路35巷13號","city":"台北市","area":"內湖區","long":25.079806,"lat":121.5655357,"tel":"0287513447","company":"7-11","cupName":"OPENiECO循環杯"},{"name":"7-11 晏揚門市","address":"台北市內湖區康寧路三段99巷14號","city":"台北市","area":"內湖區","long":25.0726965,"lat":121.6107436,"tel":"0226345565","company":"7-11","cupName":"OPENiECO循環杯"},{"name":"7-11 瓏馬門市","address":"台北市內湖區康樂街213號","city":"台北市","area":"內湖區","long":25.0761573,"lat":121.6216986,"tel":"0226342774","company":"7-11","cupName":"OPENiECO循環杯"},{"name":"7-11 大眾門市","address":"台北市內湖區港墘路221巷41號1樓","city":"台北市","area":"內湖區","long":25.0732355,"lat":121.5752183,"tel":"0226586048","company":"7-11","cupName":"OPENiECO循環杯"},{"name":"7-11 匯陽門市","address":"台北市內湖區陽光街383號","city":"台北市","area":"內湖區","long":25.0727391,"lat":121.5762905,"tel":"0287977391","company":"7-11","cupName":"OPENiECO循環杯"},{"name":"7-11 參龍門市","address":"台北市內湖區新湖一路95號1樓","city":"台北市","area":"內湖區","long":25.0585718,"lat":121.5762598,"tel":"0227935418","company":"7-11","cupName":"OPENiECO循環杯"},{"name":"7-11 全球門市","address":"台北市內湖區新湖二路329號1樓","city":"台北市","area":"內湖區","long":25.0645059,"lat":121.5834222,"tel":"0287927149","company":"7-11","cupName":"OPENiECO循環杯"},{"name":"7-11 見晴門市","address":"台北市內湖區瑞光路196號","city":"台北市","area":"內湖區","long":25.074823,"lat":121.5770939,"tel":"0226599918","company":"7-11","cupName":"OPENiECO循環杯"},{"name":"7-11 鴻瑞門市","address":"台北市內湖區瑞光路335號","city":"台北市","area":"內湖區","long":25.0773101,"lat":121.5750762,"tel":"0226275241","company":"7-11","cupName":"OPENiECO循環杯"},{"name":"7-11 里昂門市","address":"台北市內湖區瑞光路406號1樓","city":"台北市","area":"內湖區","long":25.0780824,"lat":121.5706201,"tel":"0287514839","company":"7-11","cupName":"OPENiECO循環杯"},{"name":"7-11 瑞鑫門市","address":"台北市內湖區瑞光路580號","city":"台北市","area":"內湖區","long":25.0800091,"lat":121.5665074,"tel":"0226579574","company":"7-11","cupName":"OPENiECO循環杯"},{"name":"7-11 瑞寶門市","address":"台北市內湖區瑞光路583巷27號1樓","city":"台北市","area":"內湖區","long":25.0808548,"lat":121.567801,"tel":"0287512228","company":"7-11","cupName":"OPENiECO循環杯"},{"name":"7-11 日內瓦門市","address":"台北市內湖區瑞光路76巷59號1樓","city":"台北市","area":"內湖區","long":25.0702631,"lat":121.5803676,"tel":"0287912964","company":"7-11","cupName":"OPENiECO循環杯"},{"name":"7-11 環金門市","address":"台北市內湖區環山路二段123號125號1樓","city":"台北市","area":"內湖區","long":25.084232,"lat":121.5764382,"tel":"0287977343","company":"7-11","cupName":"OPENiECO循環杯"},{"name":"7-11 巨新門市","address":"台北市文山區木新路二段212號","city":"台北市","area":"文山區","long":24.9836929,"lat":121.5675444,"tel":"0229373241","company":"7-11","cupName":"OPENiECO循環杯"},{"name":"7-11 文儀門市","address":"台北市文山區木新路三段54號56號","city":"台北市","area":"文山區","long":24.9826035,"lat":121.564068,"tel":"0286618765","company":"7-11","cupName":"OPENiECO循環杯"},{"name":"7-11 文山門市","address":"台北市文山區永安街22巷23號25號1樓","city":"台北市","area":"文山區","long":24.9867043,"lat":121.5689617,"tel":"0229368284","company":"7-11","cupName":"OPENiECO循環杯"},{"name":"7-11 新秀門市","address":"台北市文山區秀明路二段8號10號","city":"台北市","area":"文山區","long":24.9915905,"lat":121.5741433,"tel":"0229398096","company":"7-11","cupName":"OPENiECO循環杯"},{"name":"7-11 忠順門市","address":"台北市文山區忠順街一段26巷22號24號","city":"台北市","area":"文山區","long":24.9830651,"lat":121.559405,"tel":"0229379365","company":"7-11","cupName":"OPENiECO循環杯"},{"name":"7-11 指南門市","address":"台北市文山區指南路一段34號36號1樓","city":"台北市","area":"文山區","long":24.9876011,"lat":121.5696875,"tel":"0229363203","company":"7-11","cupName":"OPENiECO循環杯"},{"name":"7-11 西安門市","address":"台北市北投區大興街44號","city":"台北市","area":"北投區","long":25.1300847,"lat":121.4993611,"tel":"0228949299","company":"7-11","cupName":"OPENiECO循環杯"},{"name":"7-11 雙全門市","address":"台北市北投區大業路715號717號","city":"台北市","area":"北投區","long":25.137221,"lat":121.500961,"tel":"0228940338","company":"7-11","cupName":"OPENiECO循環杯"},{"name":"7-11 新豪美門市","address":"台北市北投區文林北路98號100號","city":"台北市","area":"北投區","long":25.10564,"lat":121.517646,"tel":"0228233553","company":"7-11","cupName":"OPENiECO循環杯"},{"name":"7-11 行義門市","address":"台北市北投區石牌路二段348巷1號3號1樓","city":"台北市","area":"北投區","long":25.123068,"lat":121.5250107,"tel":"0228728452","company":"7-11","cupName":"OPENiECO循環杯"},{"name":"7-11 明德門市","address":"台北市北投區明德路114號","city":"台北市","area":"北投區","long":25.1098629,"lat":121.5202561,"tel":"0228220224","company":"7-11","cupName":"OPENiECO循環杯"},{"name":"7-11 泉源門市","address":"台北市北投區泉源路30號B1","city":"台北市","area":"北投區","long":25.1398719,"lat":121.5066478,"tel":"0228975244","company":"7-11","cupName":"OPENiECO循環杯"},{"name":"7-11 鐏賢門市","address":"台北市北投區尊賢街247號","city":"台北市","area":"北投區","long":25.1174503,"lat":121.5069062,"tel":"0228272331","company":"7-11","cupName":"OPENiECO循環杯"},{"name":"7-11 台場門市","address":"台北市松山區八德路三段20-2號號","city":"台北市","area":"松山區","long":25.0481,"lat":121.5510974,"tel":"0225794824","company":"7-11","cupName":"OPENiECO循環杯"},{"name":"7-11 松鑽門市","address":"台北市松山區八德路四段686號","city":"台北市","area":"松山區","long":25.0498635,"lat":121.5767215,"tel":"0227457876","company":"7-11","cupName":"OPENiECO循環杯"},{"name":"7-11 京復門市","address":"台北市松山區光復北路11巷44號","city":"台北市","area":"松山區","long":25.049613,"lat":121.5595939,"tel":"0227425644","company":"7-11","cupName":"OPENiECO循環杯"},{"name":"7-11 東復門市","address":"台北市松山區復興北路313巷25號","city":"台北市","area":"松山區","long":25.0590478,"lat":121.5462468,"tel":"0225472325","company":"7-11","cupName":"OPENiECO循環杯"},{"name":"7-11 松禾門市","address":"台北市松山區塔悠路31號33號","city":"台北市","area":"松山區","long":25.0507119,"lat":121.5715694,"tel":"0237651361","company":"7-11","cupName":"OPENiECO循環杯"},{"name":"7-11 廣慈門市","address":"台北市信義區大道路115號117號1樓","city":"台北市","area":"信義區","long":25.0396255,"lat":121.5831492,"tel":"0227269140","company":"7-11","cupName":"OPENiECO循環杯"},{"name":"7-11 春光門市","address":"台北市信義區大道路9-11號","city":"台北市","area":"信義區","long":25.0425874,"lat":121.5815569,"tel":"0227590205","company":"7-11","cupName":"OPENiECO循環杯"},{"name":"7-11 革新門市","address":"台北市信義區永吉路32號34號","city":"台北市","area":"信義區","long":25.0455575,"lat":121.5688898,"tel":"0227688917","company":"7-11","cupName":"OPENiECO循環杯"},{"name":"7-11 總部門市","address":"台北市信義區東興路67號1樓","city":"台北市","area":"信義區","long":25.0470199,"lat":121.5665836,"tel":"0287874502","company":"7-11","cupName":"OPENiECO循環杯"},{"name":"7-11 松茂門市","address":"台北市信義區松山路11號B1樓","city":"台北市","area":"信義區","long":25.0492016,"lat":121.5783212,"tel":"0227478931","company":"7-11","cupName":"OPENiECO循環杯"},{"name":"7-11 開源門市","address":"台北市信義區松山路136-138號","city":"台北市","area":"信義區","long":25.0472141,"lat":121.5776112,"tel":"0227627486","company":"7-11","cupName":"OPENiECO循環杯"},{"name":"7-11 嘉馥門市","address":"台北市信義區信義路六段21號23號1樓","city":"台北市","area":"信義區","long":25.03444,"lat":121.575498,"tel":"0223461308","company":"7-11","cupName":"OPENiECO循環杯"},{"name":"7-11 松高門市","address":"台北市信義區基隆路一段141號","city":"台北市","area":"信義區","long":25.0429861,"lat":121.5659519,"tel":"0227670810","company":"7-11","cupName":"OPENiECO循環杯"},{"name":"7-11 道生門市","address":"台北市信義區東興路57號","city":"台北市","area":"信義區","long":25.0473181,"lat":121.5665329,"tel":"0287682914","company":"7-11","cupName":"OPENiECO循環杯"},{"name":"7-11 留公門市","address":"台北市信義區福德街247號249號","city":"台北市","area":"信義區","long":25.0387468,"lat":121.5858906,"tel":"0227591442","company":"7-11","cupName":"OPENiECO循環杯"},{"name":"7-11 港麗門市","address":"台北市南港區忠孝東路七段369號2樓","city":"台北市","area":"南港區","long":25.0525582,"lat":121.604518,"tel":"0226510842","company":"7-11","cupName":"OPENiECO循環杯"},{"name":"7-11 佳樂門市","address":"台北市南港區南港路一段303號305307號1樓","city":"台北市","area":"南港區","long":25.0543654,"lat":121.6077387,"tel":"0226533511","company":"7-11","cupName":"OPENiECO循環杯"},{"name":"7-11 慈愛門市","address":"台北市南港區重陽路164號","city":"台北市","area":"南港區","long":25.0571308,"lat":121.6009048,"tel":"0226513567","company":"7-11","cupName":"OPENiECO循環杯"},{"name":"7-11 港德門市","address":"台北市南港區福德街373巷25號","city":"台北市","area":"南港區","long":25.0396998,"lat":121.5915664,"tel":"0227857774","company":"7-11","cupName":"OPENiECO循環杯"},{"name":"7-11 港興門市","address":"台北市南港區興華路121號","city":"台北市","area":"南港區","long":25.0568799,"lat":121.6057653,"tel":"0226516380","company":"7-11","cupName":"OPENiECO循環杯"},{"name":"7-11 欣昌門市","address":"台北市萬華區西昌街177號西昌街177號179179-1號","city":"台北市","area":"萬華區","long":25.0387795,"lat":121.5007327,"tel":"0223313572","company":"7-11","cupName":"OPENiECO循環杯"},{"name":"7-11 凱富門市","address":"台北市萬華區西園路一段278號","city":"台北市","area":"萬華區","long":25.0338688,"lat":121.4992892,"tel":"0223024836","company":"7-11","cupName":"OPENiECO循環杯"},{"name":"7-11 園寶門市","address":"台北市萬華區西園路二段281巷29號33號31","city":"台北市","area":"萬華區","long":25.0235467,"lat":121.4928057,"tel":"0223037290","company":"7-11","cupName":"OPENiECO循環杯"},{"name":"7-11 開寧門市","address":"台北市萬華區西寧南路16號","city":"台北市","area":"萬華區","long":25.0464907,"lat":121.5068551,"tel":"0223884024","company":"7-11","cupName":"OPENiECO循環杯"},{"name":"7-11 華藏門市","address":"台北市萬華區西藏路107號之1號1樓","city":"台北市","area":"萬華區","long":25.0295478,"lat":121.5033748,"tel":"0223034547","company":"7-11","cupName":"OPENiECO循環杯"},{"name":"7-11 國雙門市","address":"台北市萬華區西藏路125巷17號及129-9號","city":"台北市","area":"萬華區","long":25.0281303,"lat":121.5025003,"tel":"0223390812","company":"7-11","cupName":"OPENiECO循環杯"},{"name":"7-11 萬和門市","address":"台北市萬華區萬大路182號","city":"台北市","area":"萬華區","long":25.0280262,"lat":121.5003177,"tel":"0223055379","company":"7-11","cupName":"OPENiECO循環杯"},{"name":"7-11 漢中門市","address":"台北市萬華區漢中街185號187號","city":"台北市","area":"萬華區","long":25.041138,"lat":121.506842,"tel":"0223120633","company":"7-11","cupName":"OPENiECO循環杯"},{"name":"7-11 雙環門市","address":"台北市萬華區環河南路二段207號","city":"台北市","area":"萬華區","long":25.0320293,"lat":121.4915704,"tel":"0223361021","company":"7-11","cupName":"OPENiECO循環杯"},{"name":"7-11 寶昌門市","address":"台北市萬華區寶興街186號","city":"台北市","area":"萬華區","long":25.0236834,"lat":121.4952973,"tel":"0223045536","company":"7-11","cupName":"OPENiECO循環杯"},{"name":"7-11 富達門市","address":"宜蘭縣頭城鎮青雲路一段225號227號1樓","city":"宜蘭縣","area":"頭城鎮","long":24.8394775,"lat":121.7950612,"tel":"039875509","company":"7-11","cupName":"OPENiECO循環杯"},{"name":"7-11 蘭雲門市","address":"宜蘭縣頭城鎮青雲路三段315號","city":"宜蘭縣","area":"頭城鎮","long":24.859904,"lat":121.826702,"tel":"039777694","company":"7-11","cupName":"OPENiECO循環杯"},{"name":"7-11 新梗枋門市","address":"宜蘭縣頭城鎮濱海路三段323號","city":"宜蘭縣","area":"頭城鎮","long":24.905882,"lat":121.8705279,"tel":"039771121","company":"7-11","cupName":"OPENiECO循環杯"},{"name":"7-11 尚群門市","address":"桃園市八德區中山路181號","city":"桃園市","area":"八德區","long":24.9261214,"lat":121.2847556,"tel":"033681497","company":"7-11","cupName":"OPENiECO循環杯"},{"name":"7-11 明光門市","address":"桃園市八德區中華路157號1 樓","city":"桃園市","area":"八德區","long":24.9840583,"lat":121.279129,"tel":"033780845","company":"7-11","cupName":"OPENiECO循環杯"},{"name":"7-11 靖欣門市","address":"桃園市八德區興仁路46號","city":"桃園市","area":"八德區","long":24.9258648,"lat":121.2832666,"tel":"033655854","company":"7-11","cupName":"OPENiECO循環杯"},{"name":"7-11 松柏林門市","address":"桃園市八德區介壽路二段685巷50弄2號1樓","city":"桃園市","area":"八德區","long":24.9392661,"lat":121.2989232,"tel":"033685745","company":"7-11","cupName":"OPENiECO循環杯"},{"name":"7-11 大湳門市","address":"桃園市八德區和平路875-1號","city":"桃園市","area":"八德區","long":24.9597664,"lat":121.3194318,"tel":"032184780","company":"7-11","cupName":"OPENiECO循環杯"},{"name":"7-11 八勇門市","address":"桃園市八德區忠勇街197號","city":"桃園市","area":"八德區","long":24.9621456,"lat":121.3037949,"tel":"033760357","company":"7-11","cupName":"OPENiECO循環杯"},{"name":"7-11 勇伯門市","address":"桃園市八德區東勇北路380號","city":"桃園市","area":"八德區","long":24.9695172,"lat":121.3066945,"tel":"032182953","company":"7-11","cupName":"OPENiECO循環杯"},{"name":"7-11 迎和門市","address":"桃園市八德區金和路52號","city":"桃園市","area":"八德區","long":24.9554003,"lat":121.2971541,"tel":"033634716","company":"7-11","cupName":"OPENiECO循環杯"},{"name":"7-11 八福門市","address":"桃園市八德區福國街76-1號","city":"桃園市","area":"八德區","long":24.9575256,"lat":121.2932848,"tel":"033714641","company":"7-11","cupName":"OPENiECO循環杯"},{"name":"7-11 振裕門市","address":"桃園市八德區福德一路54號","city":"桃園市","area":"八德區","long":24.9661668,"lat":121.3286424,"tel":"033768214","company":"7-11","cupName":"OPENiECO循環杯"},{"name":"7-11 福僑門市","address":"桃園市八德區廣福路162號164號1樓","city":"桃園市","area":"八德區","long":24.9596598,"lat":121.2956059,"tel":"033671450","company":"7-11","cupName":"OPENiECO循環杯"},{"name":"7-11 廣福門市","address":"桃園市八德區廣福路30號","city":"桃園市","area":"八德區","long":24.9588066,"lat":121.2984549,"tel":"033614534","company":"7-11","cupName":"OPENiECO循環杯"},{"name":"7-11 靖立門市","address":"桃園市八德區豐德一路17號","city":"桃園市","area":"八德區","long":24.9265249,"lat":121.2874984,"tel":"033656122","company":"7-11","cupName":"OPENiECO循環杯"},{"name":"7-11 航祥門市","address":"桃園市大園區三民路一段785號1樓","city":"桃園市","area":"大園區","long":25.0904551,"lat":121.2522862,"tel":"033935275","company":"7-11","cupName":"OPENiECO循環杯"},{"name":"7-11 北林門市","address":"桃園市大園區大成路二段127、129號","city":"桃園市","area":"大園區","long":25.0235587,"lat":121.2169028,"tel":"032870462","company":"7-11","cupName":"OPENiECO循環杯"},{"name":"7-11 鐵鎮門市","address":"桃園市大園區中正東路二段428號","city":"桃園市","area":"大園區","long":25.0274676,"lat":121.2301537,"tel":"033816914","company":"7-11","cupName":"OPENiECO循環杯"},{"name":"7-11 內厝五門市","address":"桃園市大園區中興路二段359巷9弄3號","city":"桃園市","area":"大園區","long":25.0142169,"lat":121.2337753,"tel":"033818519","company":"7-11","cupName":"OPENiECO循環杯"},{"name":"7-11 布拉格門市","address":"桃園市大園區拔子林一路137號","city":"桃園市","area":"大園區","long":25.0767824,"lat":121.2621536,"tel":"033934419","company":"7-11","cupName":"OPENiECO循環杯"},{"name":"7-11 祥綸門市","address":"桃園市大園區高鐵北路三段45號","city":"桃園市","area":"大園區","long":25.0232539,"lat":121.2248473,"tel":"033819721","company":"7-11","cupName":"OPENiECO循環杯"},{"name":"7-11 國航門市","address":"桃園市大園區國際路一段300-1號1樓","city":"桃園市","area":"大園區","long":25.070365,"lat":121.1967023,"tel":"033841586","company":"7-11","cupName":"OPENiECO循環杯"},{"name":"7-11 果林門市","address":"桃園市大園區菓林路97號1樓","city":"桃園市","area":"大園區","long":25.0757991,"lat":121.2580732,"tel":"033935321","company":"7-11","cupName":"OPENiECO循環杯"},{"name":"7-11 文漢門市","address":"桃園市大溪區文化路188號","city":"桃園市","area":"大溪區","long":24.8773243,"lat":121.2898258,"tel":"033883094","company":"7-11","cupName":"OPENiECO循環杯"},{"name":"7-11 士香門市","address":"桃園市大溪區員林路一段228號","city":"桃園市","area":"大溪區","long":24.8955033,"lat":121.2769662,"tel":"033072579","company":"7-11","cupName":"OPENiECO循環杯"},{"name":"7-11 芯德門市","address":"桃園市大溪區復興路186號","city":"桃園市","area":"大溪區","long":24.877882,"lat":121.2930152,"tel":"033882592","company":"7-11","cupName":"OPENiECO循環杯"},{"name":"7-11 王子門市","address":"桃園市中壢區三光路130號1樓","city":"桃園市","area":"中壢區","long":24.9626064,"lat":121.2121552,"tel":"034913785","company":"7-11","cupName":"OPENiECO循環杯"},{"name":"7-11 富友門市","address":"桃園市中壢區中山東路三段419號","city":"桃園市","area":"中壢區","long":24.9391271,"lat":121.252903,"tel":"034569015","company":"7-11","cupName":"OPENiECO循環杯"},{"name":"7-11 大享門市","address":"桃園市中壢區中正路1262號","city":"桃園市","area":"中壢區","long":24.9707674,"lat":121.2016765,"tel":"034224805","company":"7-11","cupName":"OPENiECO循環杯"},{"name":"7-11 立京門市","address":"桃園市中壢區五族二街66號","city":"桃園市","area":"中壢區","long":24.9587027,"lat":121.2047131,"tel":"034923712","company":"7-11","cupName":"OPENiECO循環杯"},{"name":"7-11 成豐門市","address":"桃園市中壢區元化路197巷3號1樓","city":"桃園市","area":"中壢區","long":24.9606101,"lat":121.2277277,"tel":"034526834","company":"7-11","cupName":"OPENiECO循環杯"},{"name":"7-11 新壢門市","address":"桃園市中壢區日新路66號","city":"桃園市","area":"中壢區","long":24.9547247,"lat":121.2396084,"tel":"034387924","company":"7-11","cupName":"OPENiECO循環杯"},{"name":"7-11 高屋門市","address":"桃園市中壢區民族路二段150號152號","city":"桃園市","area":"中壢區","long":24.9576296,"lat":121.2045006,"tel":"034945931","company":"7-11","cupName":"OPENiECO循環杯"},{"name":"7-11 學屋門市","address":"桃園市中壢區民族路三段402號","city":"桃園市","area":"中壢區","long":24.960475,"lat":121.1901089,"tel":"034907780","company":"7-11","cupName":"OPENiECO循環杯"},{"name":"7-11 欣民門市","address":"桃園市中壢區民權路三段985號","city":"桃園市","area":"中壢區","long":24.9866531,"lat":121.2080248,"tel":"034275413","company":"7-11","cupName":"OPENiECO循環杯"},{"name":"7-11 金權門市","address":"桃園市中壢區中央西路二段49號","city":"桃園市","area":"中壢區","long":24.9586658,"lat":121.2172217,"tel":"032813118","company":"7-11","cupName":"OPENiECO循環杯"},{"name":"7-11 吉美門市","address":"桃園市中壢區吉林二路77號1 樓","city":"桃園市","area":"中壢區","long":24.9823292,"lat":121.2480964,"tel":"034517400","company":"7-11","cupName":"OPENiECO循環杯"},{"name":"7-11 吉利門市","address":"桃園市中壢區吉林二路83巷30號","city":"桃園市","area":"中壢區","long":24.9831822,"lat":121.2476996,"tel":"034625759","company":"7-11","cupName":"OPENiECO循環杯"},{"name":"7-11 佶林門市","address":"桃園市中壢區吉林路128-11號1樓","city":"桃園市","area":"中壢區","long":24.9827629,"lat":121.2503905,"tel":"034512735","company":"7-11","cupName":"OPENiECO循環杯"},{"name":"7-11 正神門市","address":"桃園市中壢區成章一街10號","city":"桃園市","area":"中壢區","long":24.977228,"lat":121.2593386,"tel":"034615309","company":"7-11","cupName":"OPENiECO循環杯"},{"name":"7-11 自強一門市","address":"桃園市中壢區自強一路65號1 樓","city":"桃園市","area":"中壢區","long":24.9757795,"lat":121.2442976,"tel":"034637354","company":"7-11","cupName":"OPENiECO循環杯"},{"name":"7-11 工園門市","address":"桃園市中壢區西園路27號","city":"桃園市","area":"中壢區","long":24.9730442,"lat":121.2345653,"tel":"034622124","company":"7-11","cupName":"OPENiECO循環杯"},{"name":"7-11 福記門市","address":"桃園市中壢區林森路166號","city":"桃園市","area":"中壢區","long":24.9444555,"lat":121.2266911,"tel":"034681347","company":"7-11","cupName":"OPENiECO循環杯"},{"name":"7-11 金鋒門市","address":"桃園市中壢區金鋒四街50巷2號1樓","city":"桃園市","area":"中壢區","long":24.9456617,"lat":121.2485319,"tel":"034385214","company":"7-11","cupName":"OPENiECO循環杯"},{"name":"7-11 長業門市","address":"桃園市中壢區長春路23號1 樓","city":"桃園市","area":"中壢區","long":24.9787912,"lat":121.2499679,"tel":"034535480","company":"7-11","cupName":"OPENiECO循環杯"},{"name":"7-11 富莊門市","address":"桃園市中壢區莊敬路141號莊敬里","city":"桃園市","area":"中壢區","long":24.9685655,"lat":121.2575734,"tel":"034623667","company":"7-11","cupName":"OPENiECO循環杯"},{"name":"7-11 新中北門市","address":"桃園市中壢區新中北路1018-1號號 1樓","city":"桃園市","area":"中壢區","long":24.9568317,"lat":121.2557357,"tel":"034617466","company":"7-11","cupName":"OPENiECO循環杯"},{"name":"7-11 大中原門市","address":"桃園市中壢區新中北路151號1 樓","city":"桃園市","area":"中壢區","long":24.9583374,"lat":121.2381339,"tel":"034363353","company":"7-11","cupName":"OPENiECO循環杯"},{"name":"7-11 統上門市","address":"桃園市中壢區新中北路465號","city":"桃園市","area":"中壢區","long":24.9581287,"lat":121.2448651,"tel":"034510953","company":"7-11","cupName":"OPENiECO循環杯"},{"name":"7-11 笙園門市","address":"桃園市中壢區新生路738號740742號1樓","city":"桃園市","area":"中壢區","long":24.9737548,"lat":121.2235696,"tel":"034517406","company":"7-11","cupName":"OPENiECO循環杯"},{"name":"7-11 速達門市","address":"桃園市中壢區新生路二段378-2號","city":"桃園市","area":"中壢區","long":24.9848539,"lat":121.2226064,"tel":"034533441","company":"7-11","cupName":"OPENiECO循環杯"},{"name":"7-11 興聖門市","address":"桃園市中壢區新生路二段48號","city":"桃園市","area":"中壢區","long":24.9773807,"lat":121.2228932,"tel":"034533046","company":"7-11","cupName":"OPENiECO循環杯"},{"name":"7-11 新昇門市","address":"桃園市中壢區新生路四段28號1樓","city":"桃園市","area":"中壢區","long":25.0048724,"lat":121.2136198,"tel":"032871675","company":"7-11","cupName":"OPENiECO循環杯"},{"name":"7-11 森壢門市","address":"桃園市中壢區林森路30號1樓","city":"桃園市","area":"中壢區","long":24.9468869,"lat":121.2253836,"tel":"034583746","company":"7-11","cupName":"OPENiECO循環杯"},{"name":"7-11 惠祥門市","address":"桃園市中壢區榮安一街293號","city":"桃園市","area":"中壢區","long":24.9635384,"lat":121.258294,"tel":"034636004","company":"7-11","cupName":"OPENiECO循環杯"},{"name":"7-11 福冠門市","address":"桃園市中壢區福州一街242號","city":"桃園市","area":"中壢區","long":24.9670606,"lat":121.2333138,"tel":"034353958","company":"7-11","cupName":"OPENiECO循環杯"},{"name":"7-11 新福街門市","address":"桃園市中壢區福州二街392號","city":"桃園市","area":"中壢區","long":24.9674975,"lat":121.2315861,"tel":"034553072","company":"7-11","cupName":"OPENiECO循環杯"},{"name":"7-11 福神門市","address":"桃園市中壢區福德路81之2號","city":"桃園市","area":"中壢區","long":24.9749839,"lat":121.2579228,"tel":"034631992","company":"7-11","cupName":"OPENiECO循環杯"},{"name":"7-11 壢福門市","address":"桃園市中壢區廣州路200號1 樓","city":"桃園市","area":"中壢區","long":24.9525469,"lat":121.2326124,"tel":"034589913","company":"7-11","cupName":"OPENiECO循環杯"},{"name":"7-11 新壢智門市","address":"桃園市中壢區興仁路二段57號","city":"桃園市","area":"中壢區","long":24.9676212,"lat":121.2626812,"tel":"032854198","company":"7-11","cupName":"OPENiECO循環杯"},{"name":"7-11 奇采門市","address":"桃園市中壢區興仁路三段115號","city":"桃園市","area":"中壢區","long":24.9533669,"lat":121.2640917,"tel":"034378428","company":"7-11","cupName":"OPENiECO循環杯"},{"name":"7-11 亞文門市","address":"桃園市中壢區龍川街110號","city":"桃園市","area":"中壢區","long":24.9345331,"lat":121.2465577,"tel":"034371428","company":"7-11","cupName":"OPENiECO循環杯"},{"name":"7-11 龍學門市","address":"桃園市中壢區龍昌路178號1樓","city":"桃園市","area":"中壢區","long":24.9381702,"lat":121.2492108,"tel":"034655821","company":"7-11","cupName":"OPENiECO循環杯"},{"name":"7-11 瓏門門市","address":"桃園市中壢區龍昌路538號","city":"桃園市","area":"中壢區","long":24.929692,"lat":121.2487486,"tel":"034662035","company":"7-11","cupName":"OPENiECO循環杯"},{"name":"7-11 羿龍門市","address":"桃園市中壢區龍慈路283號","city":"桃園市","area":"中壢區","long":24.939728,"lat":121.2434218,"tel":"034563734","company":"7-11","cupName":"OPENiECO循環杯"},{"name":"7-11 瓏慈門市","address":"桃園市中壢區龍慈路716號","city":"桃園市","area":"中壢區","long":24.9352319,"lat":121.2386687,"tel":"034584639","company":"7-11","cupName":"OPENiECO循環杯"},{"name":"7-11 新街門市","address":"桃園市中壢區環北路543號","city":"桃園市","area":"中壢區","long":24.9645932,"lat":121.2290825,"tel":"034617330","company":"7-11","cupName":"OPENiECO循環杯"},{"name":"7-11 忠貞門市","address":"桃園市平鎮區中山路63-3號","city":"桃園市","area":"中壢區","long":24.9284704,"lat":121.2535442,"tel":"034564991","company":"7-11","cupName":"OPENiECO循環杯"},{"name":"7-11 鎮翊門市","address":"桃園市平鎮區中豐路南勢一段173號","city":"桃園市","area":"平鎮區","long":24.920091,"lat":121.2115689,"tel":"034031404","company":"7-11","cupName":"OPENiECO循環杯"},{"name":"7-11 韻翔門市","address":"桃園市平鎮區文化街71號1樓","city":"桃園市","area":"平鎮區","long":24.9545367,"lat":121.2032403,"tel":"034930896","company":"7-11","cupName":"OPENiECO循環杯"},{"name":"7-11 東社門市","address":"桃園市平鎮區平東路148號","city":"桃園市","area":"平鎮區","long":24.9168847,"lat":121.2502479,"tel":"034507932","company":"7-11","cupName":"OPENiECO循環杯"},{"name":"7-11 禾安門市","address":"桃園市平鎮區平德路295號","city":"桃園市","area":"平鎮區","long":24.9296548,"lat":121.2022853,"tel":"034010391","company":"7-11","cupName":"OPENiECO循環杯"},{"name":"7-11 廣興門市","address":"桃園市平鎮區忠孝路69號1樓","city":"桃園市","area":"平鎮區","long":24.9544778,"lat":121.2127841,"tel":"034953721","company":"7-11","cupName":"OPENiECO循環杯"},{"name":"7-11 金平門市","address":"桃園市平鎮區金陵路四段485號","city":"桃園市","area":"平鎮區","long":24.9119161,"lat":121.23125,"tel":"034505739","company":"7-11","cupName":"OPENiECO循環杯"},{"name":"7-11 關爺門市","address":"桃園市平鎮區南東路376號","city":"桃園市","area":"平鎮區","long":24.9184051,"lat":121.2204582,"tel":"032840273","company":"7-11","cupName":"OPENiECO循環杯"},{"name":"7-11 鎮業門市","address":"桃園市平鎮區南豐路238號","city":"桃園市","area":"平鎮區","long":24.8999248,"lat":121.2048931,"tel":"034697147","company":"7-11","cupName":"OPENiECO循環杯"},{"name":"7-11 皓倫門市","address":"桃園市平鎮區振興西路72號","city":"桃園市","area":"平鎮區","long":24.9462677,"lat":121.2132475,"tel":"032813125","company":"7-11","cupName":"OPENiECO循環杯"},{"name":"7-11 寶勇門市","address":"桃園市平鎮區湧光路457號","city":"桃園市","area":"平鎮區","long":24.8900086,"lat":121.2038254,"tel":"034694080","company":"7-11","cupName":"OPENiECO循環杯"},{"name":"7-11 寶麗門市","address":"桃園市平鎮區自由街57、59、61、63號","city":"桃園市","area":"平鎮區","long":24.89229,"lat":121.204106,"tel":"034698937","company":"7-11","cupName":"OPENiECO循環杯"},{"name":"7-11 金磚門市","address":"桃園市平鎮區新富二街18號","city":"桃園市","area":"平鎮區","long":24.9418298,"lat":121.2156274,"tel":"034284567","company":"7-11","cupName":"OPENiECO循環杯"},{"name":"7-11 新貴中門市","address":"桃園市平鎮區中豐路一段98號","city":"桃園市","area":"平鎮區","long":24.9298289,"lat":121.2137141,"tel":"034670486","company":"7-11","cupName":"OPENiECO循環杯"},{"name":"7-11 達義門市","address":"桃園市平鎮區義民路199號","city":"桃園市","area":"平鎮區","long":24.9517864,"lat":121.2144999,"tel":"034022472","company":"7-11","cupName":"OPENiECO循環杯"},{"name":"7-11 廣泰門市","address":"桃園市平鎮區廣泰路130號","city":"桃園市","area":"平鎮區","long":24.9459994,"lat":121.2043005,"tel":"034910675","company":"7-11","cupName":"OPENiECO循環杯"},{"name":"7-11 龍侑門市","address":"桃園市平鎮區龍德路8號","city":"桃園市","area":"平鎮區","long":24.9251851,"lat":121.2500255,"tel":"034601054","company":"7-11","cupName":"OPENiECO循環杯"},{"name":"7-11 龍行門市","address":"桃園市桃園區力行路156號1樓 一樓","city":"桃園市","area":"桃園區","long":25.0014492,"lat":121.3014592,"tel":"033395057","company":"7-11","cupName":"OPENiECO循環杯"},{"name":"7-11 金汲門市","address":"桃園市桃園區力行路385巷11號1 樓","city":"桃園市","area":"桃園區","long":24.9979906,"lat":121.2976435,"tel":"033383733","company":"7-11","cupName":"OPENiECO循環杯"},{"name":"7-11 大佶門市","address":"桃園市桃園區三民路三段490號","city":"桃園市","area":"桃園區","long":24.983733,"lat":121.3073613,"tel":"033638720","company":"7-11","cupName":"OPENiECO循環杯"},{"name":"7-11 大權門市","address":"桃園市桃園區大同路43號1樓B1樓","city":"桃園市","area":"桃園區","long":24.9894198,"lat":121.3124086,"tel":"033380665","company":"7-11","cupName":"OPENiECO循環杯"},{"name":"7-11 星寶門市","address":"桃園市桃園區大業路一段426號1樓","city":"桃園市","area":"桃園區","long":25.0149282,"lat":121.3118233,"tel":"033256367","company":"7-11","cupName":"OPENiECO循環杯"},{"name":"7-11 新大興門市","address":"桃園市桃園區大興西路二段253號1 樓","city":"桃園市","area":"桃園區","long":25.0083851,"lat":121.2944016,"tel":"032160587","company":"7-11","cupName":"OPENiECO循環杯"},{"name":"7-11 縣北門市","address":"桃園市桃園區中山北路136號1樓","city":"桃園市","area":"桃園區","long":24.9951475,"lat":121.3032042,"tel":"033318746","company":"7-11","cupName":"OPENiECO循環杯"},{"name":"7-11 宏亞門市","address":"桃園市桃園區中平路102號","city":"桃園市","area":"桃園區","long":24.9873628,"lat":121.2927558,"tel":"032289084","company":"7-11","cupName":"OPENiECO循環杯"},{"name":"7-11 中慈門市","address":"桃園市桃園區中正三街411號","city":"桃園市","area":"桃園區","long":25.0036457,"lat":121.2984166,"tel":"033551274","company":"7-11","cupName":"OPENiECO循環杯"},{"name":"7-11 冠桃園門市","address":"桃園市桃園區國際路一段1179號","city":"桃園市","area":"桃園區","long":24.9892399,"lat":121.2886391,"tel":"033691483","company":"7-11","cupName":"OPENiECO循環杯"},{"name":"7-11 國悅門市","address":"桃園市桃園區天祥七街101號","city":"桃園市","area":"桃園區","long":25.0229627,"lat":121.2997115,"tel":"033151576","company":"7-11","cupName":"OPENiECO循環杯"},{"name":"7-11 福倉門市","address":"桃園市桃園區正光路425號1樓","city":"桃園市","area":"桃園區","long":25.001028,"lat":121.2941628,"tel":"033608304","company":"7-11","cupName":"OPENiECO循環杯"},{"name":"7-11 民鑽門市","address":"桃園市桃園區民生路57號","city":"桃園市","area":"桃園區","long":24.991661,"lat":121.3142755,"tel":"033397265","company":"7-11","cupName":"OPENiECO循環杯"},{"name":"7-11 民安門市","address":"桃園市桃園區民安路84號1樓","city":"桃園市","area":"桃園區","long":24.9976999,"lat":121.2997535,"tel":"033314714","company":"7-11","cupName":"OPENiECO循環杯"},{"name":"7-11 埔子門市","address":"桃園市桃園區永安路1040號","city":"桃園市","area":"桃園區","long":25.0092476,"lat":121.2880169,"tel":"032150752","company":"7-11","cupName":"OPENiECO循環杯"},{"name":"7-11 星宇門市","address":"桃園市桃園區永安路739號1樓","city":"桃園市","area":"桃園區","long":25.007404,"lat":121.2912775,"tel":"032161994","company":"7-11","cupName":"OPENiECO循環杯"},{"name":"7-11 新德鴻門市","address":"桃園市桃園區永福西街113號","city":"桃園市","area":"桃園區","long":24.9636608,"lat":121.2951387,"tel":"033767172","company":"7-11","cupName":"OPENiECO循環杯"},{"name":"7-11 藝德門市","address":"桃園市桃園區同德十一街98號100號","city":"桃園市","area":"桃園區","long":25.0204433,"lat":121.2955498,"tel":"033258230","company":"7-11","cupName":"OPENiECO循環杯"},{"name":"7-11 一品苑門市","address":"桃園市桃園區同德六街103號","city":"桃園市","area":"桃園區","long":25.0160344,"lat":121.2990181,"tel":"033162476","company":"7-11","cupName":"OPENiECO循環杯"},{"name":"7-11 千藝門市","address":"桃園市桃園區同德六街1號","city":"桃園市","area":"桃園區","long":25.0167345,"lat":121.3007527,"tel":"033469503","company":"7-11","cupName":"OPENiECO循環杯"},{"name":"7-11 新虎山門市","address":"桃園市桃園區成功路三段50號52號1樓","city":"桃園市","area":"桃園區","long":24.9998355,"lat":121.3256867,"tel":"033339282","company":"7-11","cupName":"OPENiECO循環杯"},{"name":"7-11 成高門市","address":"桃園市桃園區成功路三段8號一樓","city":"桃園市","area":"桃園區","long":24.9973431,"lat":121.325104,"tel":"033334549","company":"7-11","cupName":"OPENiECO循環杯"},{"name":"7-11 禾豐門市","address":"桃園市桃園區秀山路95號1 樓","city":"桃園市","area":"桃園區","long":24.9884593,"lat":121.301857,"tel":"033331864","company":"7-11","cupName":"OPENiECO循環杯"},{"name":"7-11 尊品門市","address":"桃園市桃園區建國路41之1號","city":"桃園市","area":"桃園區","long":24.9857255,"lat":121.3166933,"tel":"033634561","company":"7-11","cupName":"OPENiECO循環杯"},{"name":"7-11 全鎮門市","address":"桃園市桃園區春日路240號","city":"桃園市","area":"桃園區","long":24.9984178,"lat":121.31527,"tel":"033398439","company":"7-11","cupName":"OPENiECO循環杯"},{"name":"7-11 春寶門市","address":"桃園市桃園區春日路670號1 樓","city":"桃園市","area":"桃園區","long":25.0105142,"lat":121.3106768,"tel":"033574543","company":"7-11","cupName":"OPENiECO循環杯"},{"name":"7-11 宏太門市","address":"桃園市桃園區桃鶯路384-9號1 樓","city":"桃園市","area":"桃園區","long":24.9767594,"lat":121.3228179,"tel":"033752641","company":"7-11","cupName":"OPENiECO循環杯"},{"name":"7-11 泰昌門市","address":"桃園市桃園區泰昌三街51-6號","city":"桃園市","area":"桃園區","long":24.987839,"lat":121.2949357,"tel":"032201788","company":"7-11","cupName":"OPENiECO循環杯"},{"name":"7-11 源盛門市","address":"桃園市桃園區宏昌十二街587號1 樓","city":"桃園市","area":"桃園區","long":24.9845194,"lat":121.2884397,"tel":"032172463","company":"7-11","cupName":"OPENiECO循環杯"},{"name":"7-11 國力門市","address":"桃園市桃園區國際路二段426號1 樓","city":"桃園市","area":"桃園區","long":24.9985671,"lat":121.2883758,"tel":"032170120","company":"7-11","cupName":"OPENiECO循環杯"},{"name":"7-11 鈺朋門市","address":"桃園市桃園區莊敬路二段105號1樓","city":"桃園市","area":"桃園區","long":25.0223591,"lat":121.2929291,"tel":"033023234","company":"7-11","cupName":"OPENiECO循環杯"},{"name":"7-11 君富門市","address":"桃園市桃園區富國路555號1樓","city":"桃園市","area":"桃園區","long":25.0178498,"lat":121.2840824,"tel":"032160954","company":"7-11","cupName":"OPENiECO循環杯"},{"name":"7-11 富有門市","address":"桃園市桃園區富國路656號","city":"桃園市","area":"桃園區","long":25.0202496,"lat":121.2825019,"tel":"033026291","company":"7-11","cupName":"OPENiECO循環杯"},{"name":"7-11 振聲門市","address":"桃園市桃園區復興路389號","city":"桃園市","area":"桃園區","long":24.990786,"lat":121.302485,"tel":"033354452","company":"7-11","cupName":"OPENiECO循環杯"},{"name":"7-11 慈豐門市","address":"桃園市桃園區慈文路975號1樓","city":"桃園市","area":"桃園區","long":25.0004181,"lat":121.2884818,"tel":"033607753","company":"7-11","cupName":"OPENiECO循環杯"},{"name":"7-11 慈德門市","address":"桃園市桃園區慈德街53號5557號","city":"桃園市","area":"桃園區","long":25.0073773,"lat":121.3008024,"tel":"033575083","company":"7-11","cupName":"OPENiECO循環杯"},{"name":"7-11 謙悅門市","address":"桃園市桃園區新埔六街58號","city":"桃園市","area":"桃園區","long":25.0146845,"lat":121.3026457,"tel":"033151916","company":"7-11","cupName":"OPENiECO循環杯"},{"name":"7-11 合禾門市","address":"桃園市桃園區溫州一路302號","city":"桃園市","area":"桃園區","long":25.0028393,"lat":121.2893046,"tel":"032151852","company":"7-11","cupName":"OPENiECO循環杯"},{"name":"7-11 桃農門市","address":"桃園市桃園區萬壽路三段111號","city":"桃園市","area":"桃園區","long":24.9911478,"lat":121.3209946,"tel":"033364609","company":"7-11","cupName":"OPENiECO循環杯"},{"name":"7-11 三沅門市","address":"桃園市楊梅區三民北路88號1樓","city":"桃園市","area":"楊梅區","long":24.9104749,"lat":121.1702121,"tel":"034312709","company":"7-11","cupName":"OPENiECO循環杯"},{"name":"7-11 龍潭佳園門市","address":"桃園市龍潭區中正路三坑段776號","city":"桃園市","area":"龍潭區","long":24.831183,"lat":121.2434414,"tel":"034112989","company":"7-11","cupName":"OPENiECO循環杯"},{"name":"7-11 水龍吟門市","address":"桃園市龍潭區中原路一段506號","city":"桃園市","area":"龍潭區","long":24.8478825,"lat":121.1989163,"tel":"034117393","company":"7-11","cupName":"OPENiECO循環杯"},{"name":"7-11 龍欣門市","address":"桃園市龍潭區中興路257號259號","city":"桃園市","area":"龍潭區","long":24.8740967,"lat":121.2346697,"tel":"034894543","company":"7-11","cupName":"OPENiECO循環杯"},{"name":"7-11 凌雲門市","address":"桃園市龍潭區中豐路上林段358-1號1 樓","city":"桃園市","area":"龍潭區","long":24.859622,"lat":121.2032543,"tel":"034995805","company":"7-11","cupName":"OPENiECO循環杯"},{"name":"7-11 新龍鄉門市","address":"桃園市龍潭區民族路170號","city":"桃園市","area":"龍潭區","long":24.8413448,"lat":121.2356334,"tel":"034809419","company":"7-11","cupName":"OPENiECO循環杯"},{"name":"7-11 龍逸門市","address":"桃園市龍潭區民族路372號","city":"桃園市","area":"龍潭區","long":24.8368041,"lat":121.2338408,"tel":"034794078","company":"7-11","cupName":"OPENiECO循環杯"},{"name":"7-11 聖興門市","address":"桃園市龍潭區聖亭路186號1樓","city":"桃園市","area":"龍潭區","long":24.8695204,"lat":121.2052512,"tel":"034994805","company":"7-11","cupName":"OPENiECO循環杯"},{"name":"7-11 山民門市","address":"桃園市龜山區三民路100號","city":"桃園市","area":"龜山區","long":24.9954108,"lat":121.3242565,"tel":"033198039","company":"7-11","cupName":"OPENiECO循環杯"},{"name":"7-11 同銘門市","address":"桃園市龜山區大同路212號1樓","city":"桃園市","area":"龜山區","long":24.9906012,"lat":121.3441034,"tel":"033595385","company":"7-11","cupName":"OPENiECO循環杯"},{"name":"7-11 壽興門市","address":"桃園市龜山區中興路一段73號1樓","city":"桃園市","area":"龜山區","long":24.9944975,"lat":121.339009,"tel":"033198162","company":"7-11","cupName":"OPENiECO循環杯"},{"name":"7-11 庚大門市","address":"桃園市龜山區文化一路259號","city":"桃園市","area":"龜山區","long":25.0325885,"lat":121.3907921,"tel":"032118165","company":"7-11","cupName":"OPENiECO循環杯"},{"name":"7-11 愿景門市","address":"桃園市龜山區文化一路42號","city":"桃園市","area":"龜山區","long":25.0568635,"lat":121.373909,"tel":"033974428","company":"7-11","cupName":"OPENiECO循環杯"},{"name":"7-11 勇利門市","address":"桃園市龜山區文化一路86-6號","city":"桃園市","area":"龜山區","long":25.0542486,"lat":121.3765178,"tel":"032114483","company":"7-11","cupName":"OPENiECO循環杯"},{"name":"7-11 華亞文化門市","address":"桃園市龜山區文化一路86之55號","city":"桃園市","area":"龜山區","long":25.0499628,"lat":121.3815589,"tel":"033973713","company":"7-11","cupName":"OPENiECO循環杯"},{"name":"7-11 庚院門市","address":"桃園市龜山區文化二路11-5號","city":"桃園市","area":"龜山區","long":25.0594633,"lat":121.3654857,"tel":"033279311","company":"7-11","cupName":"OPENiECO循環杯"},{"name":"7-11 鑫華夏門市","address":"桃園市龜山區文化二路28-1號28-228-3號1樓","city":"桃園市","area":"龜山區","long":25.0605874,"lat":121.3644479,"tel":"032115130","company":"7-11","cupName":"OPENiECO循環杯"},{"name":"7-11 廣華門市","address":"桃園市龜山區文化三路386號","city":"桃園市","area":"龜山區","long":25.0542444,"lat":121.3664953,"tel":"032115427","company":"7-11","cupName":"OPENiECO循環杯"},{"name":"7-11 富亨門市","address":"桃園市龜山區文青路206號1樓","city":"桃園市","area":"龜山區","long":25.0399096,"lat":121.3885532,"tel":"033275307","company":"7-11","cupName":"OPENiECO循環杯"},{"name":"7-11 丞丞門市","address":"桃園市龜山區文青一路1號1樓","city":"桃園市","area":"龜山區","long":25.040112,"lat":121.3925524,"tel":"033275420","company":"7-11","cupName":"OPENiECO循環杯"},{"name":"7-11 文捷門市","address":"桃園市龜山區文桃路426號","city":"桃園市","area":"龜山區","long":25.0471189,"lat":121.3931672,"tel":"033979458","company":"7-11","cupName":"OPENiECO循環杯"},{"name":"7-11 富勝門市","address":"桃園市龜山區文學路250號1樓","city":"桃園市","area":"龜山區","long":25.0406693,"lat":121.3893094,"tel":"033180439","company":"7-11","cupName":"OPENiECO循環杯"},{"name":"7-11 民生北門市","address":"桃園市龜山區民生北路一段54號","city":"桃園市","area":"龜山區","long":25.0337435,"lat":121.302982,"tel":"033583816","company":"7-11","cupName":"OPENiECO循環杯"},{"name":"7-11 幸福五門市","address":"桃園市龜山區幸福五街17號 19號1樓","city":"桃園市","area":"龜山區","long":24.987083,"lat":121.3347635,"tel":"033508687","company":"7-11","cupName":"OPENiECO循環杯"},{"name":"7-11 山興門市","address":"桃園市龜山區明興街223、225號","city":"桃園市","area":"龜山區","long":24.9825441,"lat":121.3335446,"tel":"033498212","company":"7-11","cupName":"OPENiECO循環杯"},{"name":"7-11 陸光門市","address":"桃園市龜山區陸光路83號85號1樓","city":"桃園市","area":"龜山區","long":24.9957242,"lat":121.330893,"tel":"032132406","company":"7-11","cupName":"OPENiECO循環杯"},{"name":"7-11 新長明門市","address":"桃園市龜山區復興一路62號","city":"桃園市","area":"龜山區","long":25.0599483,"lat":121.3688713,"tel":"033961534","company":"7-11","cupName":"OPENiECO循環杯"},{"name":"7-11 新尊爵門市","address":"桃園市龜山區復興三路139號141號143145號1樓","city":"桃園市","area":"龜山區","long":25.0494952,"lat":121.3703324,"tel":"033186563","company":"7-11","cupName":"OPENiECO循環杯"},{"name":"7-11 鑫騰龍門市","address":"桃園市龜山區萬壽路一段156號","city":"桃園市","area":"龜山區","long":25.018376,"lat":121.405896,"tel":"0282090316","company":"7-11","cupName":"OPENiECO循環杯"},{"name":"7-11 萬壽門市","address":"桃園市龜山區萬壽路二段1057號1號樓 Ｂ1","city":"桃園市","area":"龜山區","long":24.9942497,"lat":121.3353549,"tel":"033194079","company":"7-11","cupName":"OPENiECO循環杯"},{"name":"7-11 茶專門市","address":"桃園市龜山區萬壽路二段353號1 樓","city":"桃園市","area":"龜山區","long":25.001123,"lat":121.355473,"tel":"033594995","company":"7-11","cupName":"OPENiECO循環杯"},{"name":"7-11 嶺頂門市","address":"桃園市龜山區萬壽路二段6巷35號","city":"桃園市","area":"龜山區","long":25.0025293,"lat":121.3635218,"tel":"033192515","company":"7-11","cupName":"OPENiECO循環杯"},{"name":"7-11 祥櫂門市","address":"桃園市龜山區萬壽路二段97號","city":"桃園市","area":"龜山區","long":25.0015585,"lat":121.3617059,"tel":"033595849","company":"7-11","cupName":"OPENiECO循環杯"},{"name":"7-11 凱達門市","address":"桃園市龜山區長壽路153號","city":"桃園市","area":"龜山區","long":25.0010239,"lat":121.3420891,"tel":"033503973","company":"7-11","cupName":"OPENiECO循環杯"},{"name":"7-11 龜山銘傳門市","address":"桃園市龜山區德明路152號1樓","city":"桃園市","area":"龜山區","long":24.988599,"lat":121.3436541,"tel":"033504227","company":"7-11","cupName":"OPENiECO循環杯"},{"name":"7-11 上興門市","address":"桃園市蘆竹區上興路251號253號1樓","city":"桃園市","area":"蘆竹區","long":25.0187195,"lat":121.260491,"tel":"033135392","company":"7-11","cupName":"OPENiECO循環杯"},{"name":"7-11 高竹門市","address":"桃園市蘆竹區大竹北路737號","city":"桃園市","area":"蘆竹區","long":25.0382843,"lat":121.2430169,"tel":"033230771","company":"7-11","cupName":"OPENiECO循環杯"},{"name":"7-11 航竹門市","address":"桃園市蘆竹區大竹路408號","city":"桃園市","area":"蘆竹區","long":25.0201244,"lat":121.2655284,"tel":"033231007","company":"7-11","cupName":"OPENiECO循環杯"},{"name":"7-11 八角店門市","address":"桃園市蘆竹區大竹路5號","city":"桃園市","area":"蘆竹區","long":25.012119,"lat":121.2743166,"tel":"032151993","company":"7-11","cupName":"OPENiECO循環杯"},{"name":"7-11 亮亞門市","address":"桃園市蘆竹區大福路189號","city":"桃園市","area":"蘆竹區","long":25.0208154,"lat":121.2577358,"tel":"033231648","company":"7-11","cupName":"OPENiECO循環杯"},{"name":"7-11 航空門市","address":"桃園市蘆竹區中正路304號","city":"桃園市","area":"蘆竹區","long":25.0475219,"lat":121.2922848,"tel":"033223603","company":"7-11","cupName":"OPENiECO循環杯"},{"name":"7-11 北崁門市","address":"桃園市蘆竹區中正路87號","city":"桃園市","area":"蘆竹區","long":25.0431487,"lat":121.2942232,"tel":"033521797","company":"7-11","cupName":"OPENiECO循環杯"},{"name":"7-11 航興門市","address":"桃園市蘆竹區大興路233號1樓","city":"桃園市","area":"蘆竹區","long":25.0186644,"lat":121.2562571,"tel":"033139174","company":"7-11","cupName":"OPENiECO循環杯"},{"name":"7-11 興鑽門市","address":"桃園市蘆竹區中興路188號","city":"桃園市","area":"蘆竹區","long":25.0137722,"lat":121.2625509,"tel":"033133374","company":"7-11","cupName":"OPENiECO循環杯"},{"name":"7-11 芮霖門市","address":"桃園市蘆竹區中興路536-1號","city":"桃園市","area":"蘆竹區","long":25.0096213,"lat":121.2550855,"tel":"033139742","company":"7-11","cupName":"OPENiECO循環杯"},{"name":"7-11 五福門市","address":"桃園市蘆竹區五福一路202號1 樓","city":"桃園市","area":"蘆竹區","long":25.054397,"lat":121.2943268,"tel":"033524219","company":"7-11","cupName":"OPENiECO循環杯"},{"name":"7-11 樂購門市","address":"桃園市蘆竹區五福一路41號1 樓","city":"桃園市","area":"蘆竹區","long":25.0580194,"lat":121.2952957,"tel":"032224621","company":"7-11","cupName":"OPENiECO循環杯"},{"name":"7-11 盧興門市","address":"桃園市蘆竹區長興路三段231號1樓","city":"桃園市","area":"蘆竹區","long":25.070768,"lat":121.275815,"tel":"033244562","company":"7-11","cupName":"OPENiECO循環杯"},{"name":"7-11 錦明門市","address":"桃園市蘆竹區光明路二段102號1樓","city":"桃園市","area":"蘆竹區","long":25.0471171,"lat":121.2878598,"tel":"033116303","company":"7-11","cupName":"OPENiECO循環杯"},{"name":"7-11 勁賀門市","address":"桃園市蘆竹區光明路二段139號","city":"桃園市","area":"蘆竹區","long":25.0479976,"lat":121.2876402,"tel":"032121340","company":"7-11","cupName":"OPENiECO循環杯"},{"name":"7-11 樂欣門市","address":"桃園市蘆竹區長興路二段28號","city":"桃園市","area":"蘆竹區","long":25.0666457,"lat":121.2907575,"tel":"033229553","company":"7-11","cupName":"OPENiECO循環杯"},{"name":"7-11 南山北門市","address":"桃園市蘆竹區南山北路二段426號1樓","city":"桃園市","area":"蘆竹區","long":25.1073993,"lat":121.274312,"tel":"033543450","company":"7-11","cupName":"OPENiECO循環杯"},{"name":"7-11 航海門市","address":"桃園市蘆竹區南山路一段175之1號1樓","city":"桃園市","area":"蘆竹區","long":25.0564143,"lat":121.2896513,"tel":"033528510","company":"7-11","cupName":"OPENiECO循環杯"},{"name":"7-11 盧長門市","address":"桃園市蘆竹區南山路二段183號","city":"桃園市","area":"蘆竹區","long":25.0651617,"lat":121.2870653,"tel":"033528714","company":"7-11","cupName":"OPENiECO循環杯"},{"name":"7-11 富竹門市","address":"桃園市蘆竹區南竹路二段313號1樓","city":"桃園市","area":"蘆竹區","long":25.0353106,"lat":121.2790431,"tel":"033138184","company":"7-11","cupName":"OPENiECO循環杯"},{"name":"7-11 景竹門市","address":"桃園市蘆竹區南竹路五段200號1樓","city":"桃園市","area":"蘆竹區","long":25.0257097,"lat":121.2607341,"tel":"033134014","company":"7-11","cupName":"OPENiECO循環杯"},{"name":"7-11 映竹門市","address":"桃園市蘆竹區南竹路四段250號1樓","city":"桃園市","area":"蘆竹區","long":25.0285875,"lat":121.2655426,"tel":"033231498","company":"7-11","cupName":"OPENiECO循環杯"},{"name":"7-11 開南門市","address":"桃園市蘆竹區新興街136號1 樓","city":"桃園市","area":"蘆竹區","long":25.0093217,"lat":121.2707907,"tel":"033024195","company":"7-11","cupName":"OPENiECO循環杯"},{"name":"7-11 湖海門市","address":"桃園市蘆竹區濱海路一段337號1 樓","city":"桃園市","area":"蘆竹區","long":25.1155005,"lat":121.2605009,"tel":"033544607","company":"7-11","cupName":"OPENiECO循環杯"},{"name":"7-11 篤鑫門市","address":"基隆市七堵區堵南街22-1號1樓","city":"基隆市","area":"七堵區","long":25.0825175,"lat":121.6862878,"tel":"0224527780","company":"7-11","cupName":"OPENiECO循環杯"},{"name":"7-11 福聚門市","address":"基隆市七堵區實踐路286號","city":"基隆市","area":"七堵區","long":25.0874214,"lat":121.6953072,"tel":"0224524570","company":"7-11","cupName":"OPENiECO循環杯"},{"name":"7-11 新五福門市","address":"基隆市七堵區福五街80號82號1樓","city":"基隆市","area":"七堵區","long":25.0847618,"lat":121.6986892,"tel":"0224529901","company":"7-11","cupName":"OPENiECO循環杯"},{"name":"7-11 武訓門市","address":"基隆市安樂區武訓街102號1樓","city":"基隆市","area":"安樂區","long":25.1521486,"lat":121.6977643,"tel":"0224329441","company":"7-11","cupName":"OPENiECO循環杯"},{"name":"7-11 東明門市","address":"基隆市信義區東明路181號","city":"基隆市","area":"信義區","long":25.1277268,"lat":121.7576713,"tel":"0224680400","company":"7-11","cupName":"OPENiECO循環杯"},{"name":"7-11 深美門市","address":"基隆市信義區孝忠里深美街196號","city":"基隆市","area":"信義區","long":25.1367299,"lat":121.7788765,"tel":"0224664831","company":"7-11","cupName":"OPENiECO循環杯"},{"name":"7-11 深澳坑門市","address":"基隆市信義區深澳坑路2-6號號2-7號","city":"基隆市","area":"信義區","long":25.1369982,"lat":121.7712525,"tel":"0224685466","company":"7-11","cupName":"OPENiECO循環杯"},{"name":"7-11 新暖東門市","address":"基隆市暖暖區暖暖街177號1樓","city":"基隆市","area":"暖暖區","long":25.0993604,"lat":121.7359885,"tel":"0224580719","company":"7-11","cupName":"OPENiECO循環杯"},{"name":"7-11 益彰門市","address":"新北市八里區中山路二段409號411號","city":"新北市","area":"八里區","long":25.1462984,"lat":121.3974232,"tel":"0226102771","company":"7-11","cupName":"OPENiECO循環杯"},{"name":"7-11 八仙門市","address":"新北市八里區中華路二段290號","city":"新北市","area":"八里區","long":25.1489543,"lat":121.4043641,"tel":"0286302400","company":"7-11","cupName":"OPENiECO循環杯"},{"name":"7-11 喜城門市","address":"新北市八里區中華路二段562號","city":"新北市","area":"八里區","long":25.1448526,"lat":121.3987469,"tel":"0226194462","company":"7-11","cupName":"OPENiECO循環杯"},{"name":"7-11 神州門市","address":"新北市八里區龍米路一段113號","city":"新北市","area":"八里區","long":25.1260767,"lat":121.4524485,"tel":"0226184212","company":"7-11","cupName":"OPENiECO循環杯"},{"name":"7-11 龍米門市","address":"新北市八里區龍米路二段46號4850號","city":"新北市","area":"八里區","long":25.140685,"lat":121.448321,"tel":"0226188711","company":"7-11","cupName":"OPENiECO循環杯"},{"name":"7-11 智成門市","address":"新北市三芝區中正路二段1號智成街79號","city":"新北市","area":"三芝區","long":25.2557954,"lat":121.5046986,"tel":"0286352563","company":"7-11","cupName":"OPENiECO循環杯"},{"name":"7-11 立福門市","address":"新北市三重區力行路一段62號力行路一段60之1號60之2號1樓","city":"新北市","area":"三重區","long":25.0690242,"lat":121.4846627,"tel":"0229847213","company":"7-11","cupName":"OPENiECO循環杯"},{"name":"7-11 陡門頭門市","address":"新北市三重區三民街329號","city":"新北市","area":"三重區","long":25.0691193,"lat":121.477037,"tel":"0229832749","company":"7-11","cupName":"OPENiECO循環杯"},{"name":"7-11 荷運門市","address":"新北市三重區三和路四段97號1樓","city":"新北市","area":"三重區","long":25.0763574,"lat":121.4876414,"tel":"0222809692","company":"7-11","cupName":"OPENiECO循環杯"},{"name":"7-11 重樂門市","address":"新北市三重區三信路196號","city":"新北市","area":"三重區","long":25.0854564,"lat":121.4871194,"tel":"0228559436","company":"7-11","cupName":"OPENiECO循環杯"},{"name":"7-11 虹諭門市","address":"新北市三重區中正北路193巷21弄43號","city":"新北市","area":"三重區","long":25.0709854,"lat":121.4790458,"tel":"0229848146","company":"7-11","cupName":"OPENiECO循環杯"},{"name":"7-11 正大門市","address":"新北市三重區中正北路235號","city":"新北市","area":"三重區","long":25.0706215,"lat":121.4759019,"tel":"0229841990","company":"7-11","cupName":"OPENiECO循環杯"},{"name":"7-11 愛家門市","address":"新北市三重區中興北街42巷11號","city":"新北市","area":"三重區","long":25.0493322,"lat":121.469351,"tel":"0285110144","company":"7-11","cupName":"OPENiECO循環杯"},{"name":"7-11 三重一門市","address":"新北市三重區正義南路133號135號","city":"新北市","area":"三重區","long":25.05802,"lat":121.4986767,"tel":"0229747875","company":"7-11","cupName":"OPENiECO循環杯"},{"name":"7-11 勇福門市","address":"新北市三重區永福街115、117號1樓","city":"新北市","area":"三重區","long":25.0773345,"lat":121.479069,"tel":"0282871465","company":"7-11","cupName":"OPENiECO循環杯"},{"name":"7-11 集美門市","address":"新北市三重區集美街107號","city":"新北市","area":"三重區","long":25.052914,"lat":121.4894707,"tel":"0229772012","company":"7-11","cupName":"OPENiECO循環杯"},{"name":"7-11 三田門市","address":"新北市三重區三民街274號","city":"新北市","area":"三重區","long":25.068178,"lat":121.4787932,"tel":"0229897011","company":"7-11","cupName":"OPENiECO循環杯"},{"name":"7-11 環德門市","address":"新北市三重區福德南路38號","city":"新北市","area":"三重區","long":25.0626849,"lat":121.502993,"tel":"0229769304","company":"7-11","cupName":"OPENiECO循環杯"},{"name":"7-11 北霆門市","address":"新北市三峽區大同路244號1 樓","city":"新北市","area":"三峽區","long":24.925612,"lat":121.3661173,"tel":"0226738703","company":"7-11","cupName":"OPENiECO循環杯"},{"name":"7-11 大峽門市","address":"新北市三峽區大學路147號","city":"新北市","area":"三峽區","long":24.9441503,"lat":121.3742179,"tel":"0286722354","company":"7-11","cupName":"OPENiECO循環杯"},{"name":"7-11 新北大門市","address":"新北市三峽區大學路156號1樓","city":"新北市","area":"三峽區","long":24.9451545,"lat":121.3737939,"tel":"0226714880","company":"7-11","cupName":"OPENiECO循環杯"},{"name":"7-11 天下門市","address":"新北市三峽區中正路一段110號112號1樓","city":"新北市","area":"三峽區","long":24.9295899,"lat":121.3739837,"tel":"0226713245","company":"7-11","cupName":"OPENiECO循環杯"},{"name":"7-11 三角湧門市","address":"新北市三峽區中正路二段200號","city":"新北市","area":"三峽區","long":24.9144575,"lat":121.3658358,"tel":"0286722785","company":"7-11","cupName":"OPENiECO循環杯"},{"name":"7-11 華晟門市","address":"新北市三峽區中華路38-1號","city":"新北市","area":"三峽區","long":24.9318125,"lat":121.3731748,"tel":"0286720824","company":"7-11","cupName":"OPENiECO循環杯"},{"name":"7-11 福峽門市","address":"新北市三峽區介壽路一段286號","city":"新北市","area":"三峽區","long":24.9300958,"lat":121.3798404,"tel":"0286720541","company":"7-11","cupName":"OPENiECO循環杯"},{"name":"7-11 豐康門市","address":"新北市三峽區成福路241號","city":"新北市","area":"三峽區","long":24.9253858,"lat":121.4268481,"tel":"0226726462","company":"7-11","cupName":"OPENiECO循環杯"},{"name":"7-11 祥泰門市","address":"新北市土城區中山路38號","city":"新北市","area":"土城區","long":24.9642252,"lat":121.4255778,"tel":"0222679712","company":"7-11","cupName":"OPENiECO循環杯"},{"name":"7-11 皇翔門市","address":"新北市土城區裕民路10-1號.10號中央路一段88號1樓8-1號.8","city":"新北市","area":"土城區","long":24.9889243,"lat":121.4469333,"tel":"0222645433","company":"7-11","cupName":"OPENiECO循環杯"},{"name":"7-11 城利門市","address":"新北市土城區中央路二段223號","city":"新北市","area":"土城區","long":24.9732732,"lat":121.440793,"tel":"0282622530","company":"7-11","cupName":"OPENiECO循環杯"},{"name":"7-11 金源門市","address":"新北市土城區福仁街23號水源街59號1樓","city":"新北市","area":"土城區","long":24.975912,"lat":121.4404048,"tel":"0222604178","company":"7-11","cupName":"OPENiECO循環杯"},{"name":"7-11 家美門市","address":"新北市中和區中山路二段317號之1","city":"新北市","area":"中和區","long":25.001957,"lat":121.493903,"tel":"0222420594","company":"7-11","cupName":"OPENiECO循環杯"},{"name":"7-11 正原門市","address":"新北市中和區中山路二段530號1樓","city":"新北市","area":"中和區","long":25.0050612,"lat":121.4857805,"tel":"0222281549","company":"7-11","cupName":"OPENiECO循環杯"},{"name":"7-11 景鑫門市","address":"新北市中和區中正路683號","city":"新北市","area":"中和區","long":24.9978126,"lat":121.4849097,"tel":"0232349418","company":"7-11","cupName":"OPENiECO循環杯"},{"name":"7-11 世紀門市","address":"新北市中和區中正路710號1樓K棟","city":"新北市","area":"中和區","long":24.9967802,"lat":121.4857894,"tel":"0282278576","company":"7-11","cupName":"OPENiECO循環杯"},{"name":"7-11 景順門市","address":"新北市中和區中正路778號","city":"新北市","area":"中和區","long":25.0005949,"lat":121.4853518,"tel":"0222267420","company":"7-11","cupName":"OPENiECO循環杯"},{"name":"7-11 立言門市","address":"新北市中和區中正路872號2樓","city":"新北市","area":"中和區","long":25.0063381,"lat":121.4840916,"tel":"0222287924","company":"7-11","cupName":"OPENiECO循環杯"},{"name":"7-11 景愛門市","address":"新北市中和區仁愛街45號47號1樓","city":"新北市","area":"中和區","long":24.9882509,"lat":121.5112304,"tel":"0289419312","company":"7-11","cupName":"OPENiECO循環杯"},{"name":"7-11 民華門市","address":"新北市中和區民德路270號","city":"新北市","area":"中和區","long":24.9966389,"lat":121.4677126,"tel":"0229649342","company":"7-11","cupName":"OPENiECO循環杯"},{"name":"7-11 泰隆門市","address":"新北市中和區立德街102號","city":"新北市","area":"中和區","long":25.0081493,"lat":121.4870334,"tel":"0232345468","company":"7-11","cupName":"OPENiECO循環杯"},{"name":"7-11 立德門市","address":"新北市中和區立德街103號","city":"新北市","area":"中和區","long":25.0085289,"lat":121.4859582,"tel":"0232347894","company":"7-11","cupName":"OPENiECO循環杯"},{"name":"7-11 永宜門市","address":"新北市中和區宜安路118巷22號","city":"新北市","area":"中和區","long":24.9985779,"lat":121.5109645,"tel":"0232333935","company":"7-11","cupName":"OPENiECO循環杯"},{"name":"7-11 板南門市","address":"新北市中和區板南路486號","city":"新北市","area":"中和區","long":25.0064588,"lat":121.4882661,"tel":"0222216293","company":"7-11","cupName":"OPENiECO循環杯"},{"name":"7-11 芯建門市","address":"新北市中和區建一路182號","city":"新北市","area":"中和區","long":24.9970996,"lat":121.4877621,"tel":"0282280959","company":"7-11","cupName":"OPENiECO循環杯"},{"name":"7-11 森森門市","address":"新北市中和區建八路174號1樓","city":"新北市","area":"中和區","long":24.9985438,"lat":121.4907067,"tel":"0222222891","company":"7-11","cupName":"OPENiECO循環杯"},{"name":"7-11 建六門市","address":"新北市中和區建六路62號","city":"新北市","area":"中和區","long":25.0020298,"lat":121.4861624,"tel":"0222228354","company":"7-11","cupName":"OPENiECO循環杯"},{"name":"7-11 建一門市","address":"新北市中和區建康路101號","city":"新北市","area":"中和區","long":25.0003778,"lat":121.4882732,"tel":"0232343779","company":"7-11","cupName":"OPENiECO循環杯"},{"name":"7-11 建康門市","address":"新北市中和區建康路270號","city":"新北市","area":"中和區","long":25.0001104,"lat":121.4930037,"tel":"0282452425","company":"7-11","cupName":"OPENiECO循環杯"},{"name":"7-11 員新門市","address":"新北市中和區員山路504號","city":"新北市","area":"中和區","long":25.0082527,"lat":121.4795978,"tel":"0222215243","company":"7-11","cupName":"OPENiECO循環杯"},{"name":"7-11 板勝門市","address":"新北市中和區連城路219巷6號8號","city":"新北市","area":"中和區","long":24.9971291,"lat":121.4945241,"tel":"0222437141","company":"7-11","cupName":"OPENiECO循環杯"},{"name":"7-11 全茂門市","address":"新北市中和區連城路469巷9號11號","city":"新北市","area":"中和區","long":24.9955113,"lat":121.4836869,"tel":"0282286711","company":"7-11","cupName":"OPENiECO循環杯"},{"name":"7-11 冠德門市","address":"新北市中和區景平路71-5號號","city":"新北市","area":"中和區","long":24.9914237,"lat":121.518919,"tel":"0229405370","company":"7-11","cupName":"OPENiECO循環杯"},{"name":"7-11 景禮門市","address":"新北市中和區景安路100號1樓102號1樓104號1樓","city":"新北市","area":"中和區","long":24.9956039,"lat":121.50543,"tel":"0222434828","company":"7-11","cupName":"OPENiECO循環杯"},{"name":"7-11 景陽門市","address":"新北市中和區景新街29.31.33號","city":"新北市","area":"中和區","long":24.999205,"lat":121.503821,"tel":"0222433194","company":"7-11","cupName":"OPENiECO循環杯"},{"name":"7-11 景鑽門市","address":"新北市中和區景新街373號373之1號","city":"新北市","area":"中和區","long":24.9905825,"lat":121.5122305,"tel":"0229435424","company":"7-11","cupName":"OPENiECO循環杯"},{"name":"7-11 華順門市","address":"新北市中和區華安街16巷1號","city":"新北市","area":"中和區","long":24.9982189,"lat":121.4661267,"tel":"0229579425","company":"7-11","cupName":"OPENiECO循環杯"},{"name":"7-11 圓通門市","address":"新北市中和區圓通路280號282號","city":"新北市","area":"中和區","long":24.9907069,"lat":121.4917103,"tel":"0222452292","company":"7-11","cupName":"OPENiECO循環杯"},{"name":"7-11 圓德門市","address":"新北市中和區圓通路391之3號391之4391之5號1樓","city":"新北市","area":"中和區","long":24.9890834,"lat":121.4899567,"tel":"0222430153","company":"7-11","cupName":"OPENiECO循環杯"},{"name":"7-11 德旺門市","address":"新北市中和區壽德街22號1樓","city":"新北市","area":"中和區","long":24.9944829,"lat":121.4662835,"tel":"0229648813","company":"7-11","cupName":"OPENiECO循環杯"},{"name":"7-11 福勝門市","address":"新北市中和區福祥路158號","city":"新北市","area":"中和區","long":25.0075131,"lat":121.4986661,"tel":"0222499480","company":"7-11","cupName":"OPENiECO循環杯"},{"name":"7-11 福泉門市","address":"新北市中和區福祥路68號","city":"新北市","area":"中和區","long":25.0052496,"lat":121.499399,"tel":"0222436653","company":"7-11","cupName":"OPENiECO循環杯"},{"name":"7-11 橋安門市","address":"新北市中和區橋安街20號1F","city":"新北市","area":"中和區","long":25.0053242,"lat":121.4923721,"tel":"0222424310","company":"7-11","cupName":"OPENiECO循環杯"},{"name":"7-11 橋和門市","address":"新北市中和區橋和路99號1樓","city":"新北市","area":"中和區","long":25.0057415,"lat":121.4906674,"tel":"0222214135","company":"7-11","cupName":"OPENiECO循環杯"},{"name":"7-11 中和門市","address":"新北市中和區橋和路9號","city":"新北市","area":"中和區","long":25.0052505,"lat":121.4885922,"tel":"0222265007","company":"7-11","cupName":"OPENiECO循環杯"},{"name":"7-11 新台門市","address":"新北市五股區五工六路14號","city":"新北市","area":"五股區","long":25.0620174,"lat":121.450798,"tel":"0222997131","company":"7-11","cupName":"OPENiECO循環杯"},{"name":"7-11 富美門市","address":"新北市五股區五權路23號","city":"新北市","area":"五股區","long":25.0666449,"lat":121.4498716,"tel":"0222981368","company":"7-11","cupName":"OPENiECO循環杯"},{"name":"7-11 鴻運門市","address":"新北市五股區水碓一路01號","city":"新北市","area":"五股區","long":25.0727936,"lat":121.4327508,"tel":"0222953564","company":"7-11","cupName":"OPENiECO循環杯"},{"name":"7-11 成泰門市","address":"新北市五股區成泰路二段84號1樓","city":"新北市","area":"五股區","long":25.0823871,"lat":121.4376421,"tel":"0222935446","company":"7-11","cupName":"OPENiECO循環杯"},{"name":"7-11 利客來門市","address":"新北市五股區成泰路三段419號","city":"新北市","area":"五股區","long":25.0973749,"lat":121.4496608,"tel":"0222953384","company":"7-11","cupName":"OPENiECO循環杯"},{"name":"7-11 泰股門市","address":"新北市五股區成泰路三段577巷24號","city":"新北市","area":"五股區","long":25.102932,"lat":121.45155,"tel":"0222936457","company":"7-11","cupName":"OPENiECO循環杯"},{"name":"7-11 豫溪門市","address":"新北市永和區中正路710號","city":"新北市","area":"永和區","long":25.0100574,"lat":121.5160293,"tel":"0229295836","company":"7-11","cupName":"OPENiECO循環杯"},{"name":"7-11 忠信門市","address":"新北市永和區中興街97號","city":"新北市","area":"永和區","long":25.0120498,"lat":121.5179106,"tel":"0289211344","company":"7-11","cupName":"OPENiECO循環杯"},{"name":"7-11 仁愛門市","address":"新北市永和區仁愛路128號130號1樓","city":"新北市","area":"永和區","long":25.0131087,"lat":121.5113517,"tel":"0222316781","company":"7-11","cupName":"OPENiECO循環杯"},{"name":"7-11 園和門市","address":"新北市永和區仁愛路269號","city":"新北市","area":"永和區","long":25.0097837,"lat":121.5062897,"tel":"0229263845","company":"7-11","cupName":"OPENiECO循環杯"},{"name":"7-11 永和門市","address":"新北市永和區文化路7號","city":"新北市","area":"永和區","long":25.0148564,"lat":121.5154099,"tel":"0229291091","company":"7-11","cupName":"OPENiECO循環杯"},{"name":"7-11 有民門市","address":"新北市永和區民有街9號11號1樓","city":"新北市","area":"永和區","long":24.9969499,"lat":121.5163324,"tel":"0229495640","company":"7-11","cupName":"OPENiECO循環杯"},{"name":"7-11 新永元門市","address":"新北市永和區永元路28號30號","city":"新北市","area":"永和區","long":25.0007063,"lat":121.5222421,"tel":"0229273661","company":"7-11","cupName":"OPENiECO循環杯"},{"name":"7-11 新永愛門市","address":"新北市永和區永平路314、316號","city":"新北市","area":"永和區","long":25.0126969,"lat":121.50713,"tel":"0222331578","company":"7-11","cupName":"OPENiECO循環杯"},{"name":"7-11 孟揚門市","address":"新北市永和區林森路62號","city":"新北市","area":"永和區","long":25.0041529,"lat":121.523894,"tel":"0229235080","company":"7-11","cupName":"OPENiECO循環杯"},{"name":"7-11 保平門市","address":"新北市永和區保平路135號","city":"新北市","area":"永和區","long":25.0060705,"lat":121.5103681,"tel":"0229239344","company":"7-11","cupName":"OPENiECO循環杯"},{"name":"7-11 秀和門市","address":"新北市永和區國中路99、101號","city":"新北市","area":"永和區","long":25.0060931,"lat":121.5243066,"tel":"0222323741","company":"7-11","cupName":"OPENiECO循環杯"},{"name":"7-11 得和門市","address":"新北市永和區得和路113號","city":"新北市","area":"永和區","long":25.0003812,"lat":121.5184327,"tel":"0229282743","company":"7-11","cupName":"OPENiECO循環杯"},{"name":"7-11 保鑽門市","address":"新北市永和區安樂路138號140號","city":"新北市","area":"永和區","long":25.0002559,"lat":121.514192,"tel":"0229453250","company":"7-11","cupName":"OPENiECO循環杯"},{"name":"7-11 矽功門市","address":"新北市汐止區大同路一段284號","city":"新北市","area":"汐止區","long":25.0575846,"lat":121.6347636,"tel":"0226410436","company":"7-11","cupName":"OPENiECO循環杯"},{"name":"7-11 保長坑門市","address":"新北市汐止區大同路三段261號","city":"新北市","area":"汐止區","long":25.0759837,"lat":121.6736249,"tel":"0286489674","company":"7-11","cupName":"OPENiECO循環杯"},{"name":"7-11 汐峰門市","address":"新北市汐止區仁愛路32號","city":"新北市","area":"汐止區","long":25.0627896,"lat":121.6603822,"tel":"0226429873","company":"7-11","cupName":"OPENiECO循環杯"},{"name":"7-11 富鄰門市","address":"新北市汐止區宜興街8號","city":"新北市","area":"汐止區","long":25.0413056,"lat":121.6212316,"tel":"0226601799","company":"7-11","cupName":"OPENiECO循環杯"},{"name":"7-11 汐忠門市","address":"新北市汐止區忠孝東路282號","city":"新北市","area":"汐止區","long":25.0681665,"lat":121.6637533,"tel":"0286917056","company":"7-11","cupName":"OPENiECO循環杯"},{"name":"7-11 艾科卡門市","address":"新北市汐止區茄苳路196號","city":"新北市","area":"汐止區","long":25.0690322,"lat":121.6702034,"tel":"0286489199","company":"7-11","cupName":"OPENiECO循環杯"},{"name":"7-11 汐湖門市","address":"新北市汐止區康寧街141巷49號51號1樓","city":"新北市","area":"汐止區","long":25.0680447,"lat":121.6212814,"tel":"0226923147","company":"7-11","cupName":"OPENiECO循環杯"},{"name":"7-11 建德門市","address":"新北市汐止區福德一路399號1號樓 Ｂ1","city":"新北市","area":"汐止區","long":25.0604404,"lat":121.6274699,"tel":"0226932349","company":"7-11","cupName":"OPENiECO循環杯"},{"name":"7-11 新翠華門市","address":"新北市板橋區三民路一段31巷14號","city":"新北市","area":"板橋區","long":25.0230679,"lat":121.4799613,"tel":"0229547438","company":"7-11","cupName":"OPENiECO循環杯"},{"name":"7-11 台藝大門市","address":"新北市板橋區大觀路一段59號","city":"新北市","area":"板橋區","long":25.0064157,"lat":121.4493128,"tel":"0289654552","company":"7-11","cupName":"OPENiECO循環杯"},{"name":"7-11 板府門市","address":"新北市板橋區中山路一段158巷4號","city":"新北市","area":"板橋區","long":25.0116514,"lat":121.466118,"tel":"0229625901","company":"7-11","cupName":"OPENiECO循環杯"},{"name":"7-11 新北市門市","address":"新北市板橋區中山路一段161號B1","city":"新北市","area":"板橋區","long":25.0123184,"lat":121.4654315,"tel":"0229645579","company":"7-11","cupName":"OPENiECO循環杯"},{"name":"7-11 中一門市","address":"新北市板橋區中正路332之5號","city":"新北市","area":"板橋區","long":25.0227923,"lat":121.4545719,"tel":"0229654415","company":"7-11","cupName":"OPENiECO循環杯"},{"name":"7-11 埔運門市","address":"新北市板橋區民生路三段40號42號1樓","city":"新北市","area":"板橋區","long":25.0250145,"lat":121.4674766,"tel":"0282524260","company":"7-11","cupName":"OPENiECO循環杯"},{"name":"7-11 光環門市","address":"新北市板橋區光環路二段68號 70號1樓","city":"新北市","area":"板橋區","long":25.0148161,"lat":121.4813844,"tel":"0229647641","company":"7-11","cupName":"OPENiECO循環杯"},{"name":"7-11 大合宜門市","address":"新北市板橋區合宜路151號1樓","city":"新北市","area":"板橋區","long":24.9975983,"lat":121.4467519,"tel":"0289697315","company":"7-11","cupName":"OPENiECO循環杯"},{"name":"7-11 府中門市","address":"新北市板橋區府中路82、84號","city":"新北市","area":"板橋區","long":25.0097152,"lat":121.456364,"tel":"0229654479","company":"7-11","cupName":"OPENiECO循環杯"},{"name":"7-11 板中門市","address":"新北市板橋區中正路21號23號","city":"新北市","area":"板橋區","long":25.0125269,"lat":121.4560436,"tel":"0229657833","company":"7-11","cupName":"OPENiECO循環杯"},{"name":"7-11 英海門市","address":"新北市板橋區雨農路50號","city":"新北市","area":"板橋區","long":25.0243205,"lat":121.4610367,"tel":"0222511636","company":"7-11","cupName":"OPENiECO循環杯"},{"name":"7-11 華富門市","address":"新北市板橋區華江一路501號","city":"新北市","area":"板橋區","long":25.0327834,"lat":121.4662319,"tel":"0222548927","company":"7-11","cupName":"OPENiECO循環杯"},{"name":"7-11 樹中門市","address":"新北市板橋區溪城路105號1樓","city":"新北市","area":"板橋區","long":24.9828634,"lat":121.4274054,"tel":"0226861044","company":"7-11","cupName":"OPENiECO循環杯"},{"name":"7-11 溪州門市","address":"新北市板橋區溪崑二街108號","city":"新北市","area":"板橋區","long":24.988744,"lat":121.426477,"tel":"0286873740","company":"7-11","cupName":"OPENiECO循環杯"},{"name":"7-11 吉翠門市","address":"新北市板橋區裕民街53號","city":"新北市","area":"板橋區","long":25.0283666,"lat":121.4611013,"tel":"0282570537","company":"7-11","cupName":"OPENiECO循環杯"},{"name":"7-11 僑興門市","address":"新北市板橋區僑中二街116巷2、4號1F","city":"新北市","area":"板橋區","long":25.006535,"lat":121.445522,"tel":"0282752965","company":"7-11","cupName":"OPENiECO循環杯"},{"name":"7-11 育軒門市","address":"新北市板橋區漢生東路268號270號1樓","city":"新北市","area":"板橋區","long":25.0128239,"lat":121.4686315,"tel":"0229517986","company":"7-11","cupName":"OPENiECO循環杯"},{"name":"7-11 縣道門市","address":"新北市板橋區縣民大道二段200巷1號","city":"新北市","area":"板橋區","long":25.017287,"lat":121.4696763,"tel":"0289537937","company":"7-11","cupName":"OPENiECO循環杯"},{"name":"7-11 瑞林門市","address":"新北市板橋區大同街52號","city":"新北市","area":"板橋區","long":25.0275848,"lat":121.4789331,"tel":"0222588414","company":"7-11","cupName":"OPENiECO循環杯"},{"name":"7-11 麗寶門市","address":"新北市林口區文化北路一段301號1樓","city":"新北市","area":"林口區","long":25.073428,"lat":121.3606832,"tel":"0226002592","company":"7-11","cupName":"OPENiECO循環杯"},{"name":"7-11 東學門市","address":"新北市林口區東湖路100號1樓","city":"新北市","area":"林口區","long":25.0738004,"lat":121.3852292,"tel":"0226016049","company":"7-11","cupName":"OPENiECO循環杯"},{"name":"7-11 金全門市","address":"新北市金山區清水路52號","city":"新北市","area":"金山區","long":25.2350025,"lat":121.6300988,"tel":"0224081935","company":"7-11","cupName":"OPENiECO循環杯"},{"name":"7-11 珈多門市","address":"新北市泰山區台麗街5號7號9號1樓","city":"新北市","area":"泰山區","long":25.038389,"lat":121.4243618,"tel":"0229082024","company":"7-11","cupName":"OPENiECO循環杯"},{"name":"7-11 明躍門市","address":"新北市泰山區明志路三段202號","city":"新北市","area":"泰山區","long":25.0385314,"lat":121.4238914,"tel":"0229042497","company":"7-11","cupName":"OPENiECO循環杯"},{"name":"7-11 貴鳳門市","address":"新北市泰山區貴鳳街2號","city":"新北市","area":"泰山區","long":25.0313873,"lat":121.4210968,"tel":"0229044794","company":"7-11","cupName":"OPENiECO循環杯"},{"name":"7-11 協元門市","address":"新北市淡水區中山路176之2號","city":"新北市","area":"淡水區","long":25.1742038,"lat":121.4413978,"tel":"0226219045","company":"7-11","cupName":"OPENiECO循環杯"},{"name":"7-11 金滬門市","address":"新北市淡水區中山路66號","city":"新北市","area":"淡水區","long":25.1705934,"lat":121.4436282,"tel":"0226223092","company":"7-11","cupName":"OPENiECO循環杯"},{"name":"7-11 海正門市","address":"新北市淡水區中正東路一段113.115號","city":"新北市","area":"淡水區","long":25.1599044,"lat":121.45424,"tel":"0226256490","company":"7-11","cupName":"OPENiECO循環杯"},{"name":"7-11 渡船頭門市","address":"新北市淡水區中正路55號 及55-1號","city":"新北市","area":"淡水區","long":25.16932,"lat":121.4418236,"tel":"0226257540","company":"7-11","cupName":"OPENiECO循環杯"},{"name":"7-11 君品門市","address":"新北市淡水區北新路141巷56號","city":"新北市","area":"淡水區","long":25.179613,"lat":121.4483126,"tel":"0226228201","company":"7-11","cupName":"OPENiECO循環杯"},{"name":"7-11 金崙門市","address":"新北市淡水區沙崙路24號1樓","city":"新北市","area":"淡水區","long":25.1812401,"lat":121.421398,"tel":"0228055104","company":"7-11","cupName":"OPENiECO循環杯"},{"name":"7-11 台北灣門市","address":"新北市淡水區新市一路一段108號","city":"新北市","area":"淡水區","long":25.1866062,"lat":121.4310801,"tel":"0226236308","company":"7-11","cupName":"OPENiECO循環杯"},{"name":"7-11 金昂門市","address":"新北市淡水區新市一路一段99巷51.53號1樓","city":"新北市","area":"淡水區","long":25.1885389,"lat":121.4311528,"tel":"0226253846","company":"7-11","cupName":"OPENiECO循環杯"},{"name":"7-11 新淡專門市","address":"新北市淡水區新民街180巷18號20號1樓","city":"新北市","area":"淡水區","long":25.1790824,"lat":121.4374479,"tel":"0226282814","company":"7-11","cupName":"OPENiECO循環杯"},{"name":"7-11 新春門市","address":"新北市淡水區新春街142號1樓","city":"新北市","area":"淡水區","long":25.1815371,"lat":121.4419302,"tel":"0226267510","company":"7-11","cupName":"OPENiECO循環杯"},{"name":"7-11 和億門市","address":"新北市淡水區濱海路一段306巷60弄35號","city":"新北市","area":"淡水區","long":25.1916329,"lat":121.4423578,"tel":"0226237509","company":"7-11","cupName":"OPENiECO循環杯"},{"name":"7-11 海晴門市","address":"新北市淡水區濱海路二段202巷69-71號","city":"新北市","area":"淡水區","long":25.1924194,"lat":121.4349805,"tel":"0226258535","company":"7-11","cupName":"OPENiECO循環杯"},{"name":"7-11 深坑門市","address":"新北市深坑區北深路三段145號","city":"新北市","area":"深坑區","long":25.0028108,"lat":121.6033447,"tel":"0226624509","company":"7-11","cupName":"OPENiECO循環杯"},{"name":"7-11 真誠門市","address":"新北市深坑區北深路三段263號","city":"新北市","area":"深坑區","long":25.0043683,"lat":121.5989784,"tel":"0226642915","company":"7-11","cupName":"OPENiECO循環杯"},{"name":"7-11 美河門市","address":"新北市新店區三民路35巷2號","city":"新北市","area":"新店區","long":24.9706402,"lat":121.5372874,"tel":"0229182854","company":"7-11","cupName":"OPENiECO循環杯"},{"name":"7-11 青新門市","address":"新北市新店區中山路137號1樓","city":"新北市","area":"新店區","long":24.9811993,"lat":121.5264838,"tel":"0222185931","company":"7-11","cupName":"OPENiECO循環杯"},{"name":"7-11 小碧潭門市","address":"新北市新店區北宜路一段28號","city":"新北市","area":"新店區","long":24.9569229,"lat":121.538247,"tel":"0286659633","company":"7-11","cupName":"OPENiECO循環杯"},{"name":"7-11 鑫鋒門市","address":"新北市新店區北新路一段90號","city":"新北市","area":"新店區","long":24.9681948,"lat":121.541857,"tel":"0289147643","company":"7-11","cupName":"OPENiECO循環杯"},{"name":"7-11 涵碧門市","address":"新北市新店區永業路6號6之18號","city":"新北市","area":"新店區","long":24.9561926,"lat":121.5338323,"tel":"0222122274","company":"7-11","cupName":"OPENiECO循環杯"},{"name":"7-11 新明門市","address":"新北市新店區光明街140號","city":"新北市","area":"新店區","long":24.9614433,"lat":121.5394345,"tel":"0229127361","company":"7-11","cupName":"OPENiECO循環杯"},{"name":"7-11 凡賽絲門市","address":"新北市新店區安民街290號1樓","city":"新北市","area":"新店區","long":24.9733727,"lat":121.5177499,"tel":"0222120010","company":"7-11","cupName":"OPENiECO循環杯"},{"name":"7-11 及人門市","address":"新北市新店區安民街72號","city":"新北市","area":"新店區","long":24.9666113,"lat":121.5166807,"tel":"0286663157","company":"7-11","cupName":"OPENiECO循環杯"},{"name":"7-11 安成門市","address":"新北市新店區安成街35號29號","city":"新北市","area":"新店區","long":24.9610203,"lat":121.5099196,"tel":"0286662996","company":"7-11","cupName":"OPENiECO循環杯"},{"name":"7-11 統和門市","address":"新北市新店區安民街335號337號","city":"新北市","area":"新店區","long":24.9746786,"lat":121.5171656,"tel":"0286662431","company":"7-11","cupName":"OPENiECO循環杯"},{"name":"7-11 康城門市","address":"新北市新店區安康路一段222-1號","city":"新北市","area":"新店區","long":24.963779,"lat":121.5229799,"tel":"0222128670","company":"7-11","cupName":"OPENiECO循環杯"},{"name":"7-11 安德門市","address":"新北市新店區安德街8號 10號 12號","city":"新北市","area":"新店區","long":24.9628834,"lat":121.5121026,"tel":"0222125348","company":"7-11","cupName":"OPENiECO循環杯"},{"name":"7-11 新錦秀門市","address":"新北市新店區錦秀路15號1 樓","city":"新北市","area":"新店區","long":24.9446865,"lat":121.4794942,"tel":"0222141427","company":"7-11","cupName":"OPENiECO循環杯"},{"name":"7-11 寶科門市","address":"新北市新店區寶橋路235巷5號1樓","city":"新北市","area":"新店區","long":24.980161,"lat":121.551557,"tel":"0289118174","company":"7-11","cupName":"OPENiECO循環杯"},{"name":"7-11 寶興門市","address":"新北市新店區寶橋路88號1樓","city":"新北市","area":"新店區","long":24.9756828,"lat":121.5467598,"tel":"0229162045","company":"7-11","cupName":"OPENiECO循環杯"},{"name":"7-11 副都心門市","address":"新北市新莊區中央路287號289號1樓","city":"新北市","area":"新莊區","long":25.0585261,"lat":121.4524238,"tel":"0285213407","company":"7-11","cupName":"OPENiECO循環杯"},{"name":"7-11 都峰苑門市","address":"新北市新莊區中央路686號號1樓","city":"新北市","area":"新莊區","long":25.0575216,"lat":121.4460434,"tel":"0285218624","company":"7-11","cupName":"OPENiECO循環杯"},{"name":"7-11 輔明門市","address":"新北市新莊區中正路514巷99號","city":"新北市","area":"新莊區","long":25.0345494,"lat":121.4307325,"tel":"0229028207","company":"7-11","cupName":"OPENiECO循環杯"},{"name":"7-11 新遠門市","address":"新北市新莊區中正路651號之8號","city":"新北市","area":"新莊區","long":25.0302901,"lat":121.4301436,"tel":"0229088727","company":"7-11","cupName":"OPENiECO循環杯"},{"name":"7-11 保元門市","address":"新北市新莊區中正路72號","city":"新北市","area":"新莊區","long":25.0382174,"lat":121.4588366,"tel":"0229900472","company":"7-11","cupName":"OPENiECO循環杯"},{"name":"7-11 榮信門市","address":"新北市新莊區中榮街90號92號1","city":"新北市","area":"新莊區","long":25.0528957,"lat":121.4477894,"tel":"0229963682","company":"7-11","cupName":"OPENiECO循環杯"},{"name":"7-11 港義門市","address":"新北市新莊區中港路527號","city":"新北市","area":"新莊區","long":25.0513161,"lat":121.4517052,"tel":"0222766035","company":"7-11","cupName":"OPENiECO循環杯"},{"name":"7-11 五工門市","address":"新北市新莊區五工二路91號","city":"新北市","area":"新莊區","long":25.0665546,"lat":121.459387,"tel":"0222999109","company":"7-11","cupName":"OPENiECO循環杯"},{"name":"7-11 福基門市","address":"新北市新莊區五工路68巷7號","city":"新北市","area":"新莊區","long":25.0640654,"lat":121.4583102,"tel":"0222991171","company":"7-11","cupName":"OPENiECO循環杯"},{"name":"7-11 原成門市","address":"新北市新莊區化成路305號","city":"新北市","area":"新莊區","long":25.0554619,"lat":121.4658909,"tel":"0285212445","company":"7-11","cupName":"OPENiECO循環杯"},{"name":"7-11 維妮門市","address":"新北市新莊區四維路23號1樓","city":"新北市","area":"新莊區","long":25.0238217,"lat":121.424068,"tel":"0222037122","company":"7-11","cupName":"OPENiECO循環杯"},{"name":"7-11 昌宏門市","address":"新北市新莊區昌隆街31號","city":"新北市","area":"新莊區","long":25.0509821,"lat":121.4547443,"tel":"0229939148","company":"7-11","cupName":"OPENiECO循環杯"},{"name":"7-11 金座門市","address":"新北市新莊區長青街5號7號","city":"新北市","area":"新莊區","long":25.0423435,"lat":121.4593455,"tel":"0229927231","company":"7-11","cupName":"OPENiECO循環杯"},{"name":"7-11 源前門市","address":"新北市新莊區思源路388、390號","city":"新北市","area":"新莊區","long":25.0521284,"lat":121.4601997,"tel":"0229904367","company":"7-11","cupName":"OPENiECO循環杯"},{"name":"7-11 興洲門市","address":"新北市新莊區新泰路472號1樓","city":"新北市","area":"新莊區","long":25.0451975,"lat":121.4430226,"tel":"0222765348","company":"7-11","cupName":"OPENiECO循環杯"},{"name":"7-11 捷仕堡門市","address":"新北市新莊區龍安路15號龍安路69巷1號","city":"新北市","area":"新莊區","long":25.0223898,"lat":121.4149523,"tel":"0229042442","company":"7-11","cupName":"OPENiECO循環杯"},{"name":"7-11 莊龍門市","address":"新北市新莊區龍安路66號","city":"新北市","area":"新莊區","long":25.0214746,"lat":121.4152088,"tel":"0229043056","company":"7-11","cupName":"OPENiECO循環杯"},{"name":"7-11 佳政門市","address":"新北市樹林區中山路三段211號","city":"新北市","area":"樹林區","long":24.9722946,"lat":121.3938009,"tel":"0226687714","company":"7-11","cupName":"OPENiECO循環杯"},{"name":"7-11 昌聖門市","address":"新北市樹林區文化街21號23號","city":"新北市","area":"樹林區","long":24.987546,"lat":121.4194212,"tel":"0286754204","company":"7-11","cupName":"OPENiECO循環杯"},{"name":"7-11 樹園門市","address":"新北市樹林區佳園路一段52-1號","city":"新北市","area":"樹林區","long":24.9706078,"lat":121.392974,"tel":"0226806053","company":"7-11","cupName":"OPENiECO循環杯"},{"name":"7-11 俊盛門市","address":"新北市樹林區俊興街156號","city":"新北市","area":"樹林區","long":25.0127943,"lat":121.4172687,"tel":"0226761721","company":"7-11","cupName":"OPENiECO循環杯"},{"name":"7-11 慶嶸門市","address":"新北市樹林區保安街一段323號323-1號1樓","city":"新北市","area":"樹林區","long":24.9981143,"lat":121.4176787,"tel":"0226853064","company":"7-11","cupName":"OPENiECO循環杯"},{"name":"7-11 樹復門市","address":"新北市樹林區復興路340號","city":"新北市","area":"樹林區","long":24.986478,"lat":121.416127,"tel":"0226874232","company":"7-11","cupName":"OPENiECO循環杯"},{"name":"7-11 飛龍門市","address":"新北市蘆洲區永安南路二段356號環堤大道2號6號","city":"新北市","area":"蘆洲區","long":25.0829244,"lat":121.4561705,"tel":"0228474291","company":"7-11","cupName":"OPENiECO循環杯"},{"name":"7-11 民欣門市","address":"新北市蘆洲區光榮路63號","city":"新北市","area":"蘆洲區","long":25.0885248,"lat":121.461177,"tel":"0228473454","company":"7-11","cupName":"OPENiECO循環杯"},{"name":"7-11 蘆華門市","address":"新北市蘆洲區長安街140號","city":"新北市","area":"蘆洲區","long":25.0822117,"lat":121.460237,"tel":"0282850614","company":"7-11","cupName":"OPENiECO循環杯"},{"name":"7-11 蘆安門市","address":"新北市蘆洲區長安街64號1樓","city":"新北市","area":"蘆洲區","long":25.079986,"lat":121.462887,"tel":"0228484952","company":"7-11","cupName":"OPENiECO循環杯"},{"name":"7-11 信義路門市","address":"新北市蘆洲區信義路341號","city":"新北市","area":"蘆洲區","long":25.0869983,"lat":121.4776939,"company":"7-11","cupName":"OPENiECO循環杯"},{"name":"7-11 陽州門市","address":"新北市蘆洲區重陽街92-96號號1F","city":"新北市","area":"蘆洲區","long":25.0846735,"lat":121.4821577,"tel":"0282813743","company":"7-11","cupName":"OPENiECO循環杯"},{"name":"7-11 國鶯門市","address":"新北市鶯歌區中山路142號","city":"新北市","area":"鶯歌區","long":24.9571366,"lat":121.3499321,"tel":"0226705843","company":"7-11","cupName":"OPENiECO循環杯"},{"name":"7-11 加百列門市","address":"新北市鶯歌區中正一路131、133號","city":"新北市","area":"鶯歌區","long":24.956076,"lat":121.3521113,"tel":"0286777134","company":"7-11","cupName":"OPENiECO循環杯"},{"name":"7-11 聖陶門市","address":"新北市鶯歌區文化路407號411號","city":"新北市","area":"鶯歌區","long":24.949292,"lat":121.3529131,"tel":"0226783246","company":"7-11","cupName":"OPENiECO循環杯"},{"name":"7-11 鳳鳴門市","address":"新北市鶯歌區永和街115巷46號1 樓","city":"新北市","area":"鶯歌區","long":24.9695668,"lat":121.3331323,"tel":"0286775974","company":"7-11","cupName":"OPENiECO循環杯"},{"name":"7-11 元町門市","address":"新北市鶯歌區光明街128號130號1樓","city":"新北市","area":"鶯歌區","long":24.9559613,"lat":121.3453715,"tel":"0226708742","company":"7-11","cupName":"OPENiECO循環杯"},{"name":"7-11 金鶯鎮門市","address":"新北市鶯歌區尖山路217-3號","city":"新北市","area":"鶯歌區","long":24.9460168,"lat":121.3425016,"tel":"0286773990","company":"7-11","cupName":"OPENiECO循環杯"},{"name":"7-11 樂陶門市","address":"新北市鶯歌區尖山路276號","city":"新北市","area":"鶯歌區","long":24.9453516,"lat":121.3415381,"tel":"0226775483","company":"7-11","cupName":"OPENiECO循環杯"},{"name":"7-11 鶯國門市","address":"新北市鶯歌區建國路126號1樓","city":"新北市","area":"鶯歌區","long":24.9541053,"lat":121.3518792,"tel":"0226776193","company":"7-11","cupName":"OPENiECO循環杯"},{"name":"7-11 歌德門市","address":"新北市鶯歌區德昌二街77-1號","city":"新北市","area":"鶯歌區","long":24.9578625,"lat":121.3334816,"tel":"0286780326","company":"7-11","cupName":"OPENiECO循環杯"},{"name":"7-11 長虹門市","address":"新北市鶯歌區鶯桃路432號1樓","city":"新北市","area":"鶯歌區","long":24.964655,"lat":121.333196,"tel":"0226789855","company":"7-11","cupName":"OPENiECO循環杯"},{"name":"7-11 鳳福門市","address":"新北市鶯歌區鶯桃路二段48號1樓","city":"新北市","area":"鶯歌區","long":24.9727578,"lat":121.3254019,"tel":"0226774207","company":"7-11","cupName":"OPENiECO循環杯"},{"name":"全家便利商店 基隆信一店","address":"基隆市信義區信一路148號","city":"基隆市","area":"信義區","long":"25.129548","lat":"121.746842","tel":"0224241255","company":"全家","cupName":"塑還真"},{"name":"全家便利商店 新德店","address":"台北市中正區八德路一段43巷2號","city":"台北市","area":"中正區","long":"25.0443907","lat":"121.5315762","tel":"0223214351","company":"全家","cupName":"塑還真"},{"name":"全家便利商店 台大醫院店","address":"台北市中正區中山南路7號","city":"台北市","area":"中正區","long":"25.0402741","lat":"121.5191591","tel":"0233223538","company":"全家","cupName":"塑還真"},{"name":"全家便利商店 新中坡店","address":"台北市信義區中坡南路229號","city":"台北市","area":"信義區","long":"25.0405585","lat":"121.5850923","tel":"0227270460","company":"全家","cupName":"塑還真"},{"name":"全家便利商店 台中狀元店","address":"台中市中區中山路19號21號","city":"台中市","area":"中區","long":"24.1375366","lat":"120.6835408","tel":"0422299329","company":"全家","cupName":"塑還真"},{"name":"全家便利商店 台中鑫華店","address":"台中市中區中華路一段152號","city":"台中市","area":"中區","long":"24.1458962","lat":"120.6776567","tel":"0422259116","company":"全家","cupName":"塑還真"},{"name":"全家便利商店 台中日新店","address":"台中市中區中華路一段109號","city":"台中市","area":"中區","long":"24.1444501","lat":"120.6757893","tel":"0422244999","company":"全家","cupName":"塑還真"},{"name":"全家便利商店 台中台鐵店","address":"台中市中區臺灣大道1段1號","city":"台中市","area":"中區","long":"24.1370044","lat":"120.6865235","tel":"0422240056","company":"全家","cupName":"塑還真"},{"name":"全家便利商店 台灣大道店","address":"台中市中區臺灣大道一段531號","city":"台中市","area":"中區","long":"24.1445834","lat":"120.6768751","tel":"0422290029","company":"全家","cupName":"塑還真"},{"name":"全家便利商店 台中十甲店","address":"台中市東區十甲路262號","city":"台中市","area":"東區","long":"24.1444318","lat":"120.7045463","tel":"0422132931","company":"全家","cupName":"塑還真"},{"name":"全家便利商店 台中東園店","address":"台中市東區東光園路536號東","city":"台中市","area":"東區","long":"24.1386086","lat":"120.6971755","tel":"0422154768","company":"全家","cupName":"塑還真"},{"name":"全家便利商店 台中金東門店","address":"台中市東區東門路118號","city":"台中市","area":"東區","long":"24.127167","lat":"120.6988936","tel":"0422806630","company":"全家","cupName":"塑還真"},{"name":"全家便利商店 台中金站店","address":"台中市東區復興路四段147號","city":"台中市","area":"東區","long":"24.1360288","lat":"120.6860343","tel":"0422245956","company":"全家","cupName":"塑還真"},{"name":"全家便利商店 台中一中街店","address":"台中市北區一中街129號","city":"台中市","area":"北區","long":"24.1508461","lat":"120.6856159","tel":"0422257909","company":"全家","cupName":"塑還真"},{"name":"萊爾富便利商店 北縣橋安店","address":"新北市中和區中山路二段352號1 樓","city":"新北市","area":"中和區","long":"25.0025102","lat":"121.4929089","tel":"0222445156","company":"萊爾富","cupName":"塑還真"},{"name":"萊爾富便利商店 北縣員山店","address":"新北市中和區員山路502-7號","city":"新北市","area":"中和區","long":"25.0078513","lat":"121.4796278","tel":"0222216218","company":"萊爾富","cupName":"塑還真"},{"name":"萊爾富便利商店 北市明湖店","address":"台北市內湖區民權東路六段296巷68號","city":"台北市","area":"內湖區","long":"25.07022","lat":"121.608923","tel":"0226348091","company":"萊爾富","cupName":"塑還真"},{"name":"萊爾富便利商店 北縣汐忠店","address":"新北市汐止區忠三街19號","city":"新北市","area":"汐止區","long":"25.0787079","lat":"121.6252279","tel":"0226903671","company":"萊爾富","cupName":"塑還真"},{"name":"萊爾富便利商店 北縣永遠店","address":"新北市永和區福和路7巷11弄16號","city":"新北市","area":"永和區","long":"25.0077894","lat":"121.5258086","tel":"0229252655","company":"萊爾富","cupName":"塑還真"},{"name":"萊爾富便利商店 北市湖鑽店","address":"台北市內湖區瑞光路502號1樓","city":"台北市","area":"內湖區","long":"25.0790491","lat":"121.567845","tel":"0226599739","company":"萊爾富","cupName":"塑還真"},{"name":"萊爾富便利商店 新店天廈店","address":"新北市新店區安民街336號及安和路二段205巷6號","city":"新北市","area":"新店區","long":"24.9750719","lat":"121.5172685","tel":"0289783349","company":"萊爾富","cupName":"塑還真"},{"name":"萊爾富便利商店 土城哲青店","address":"新北市土城區青雲路589號及589之1號","city":"新北市","area":"土城區","long":"24.9712588","lat":"121.459602","tel":"0289783133","company":"萊爾富","cupName":"塑還真"},{"name":"萊爾富便利商店 南港慈祐宮店","address":"台北市南港區南港路三段358、360號","city":"台北市","area":"南港區","long":"25.0516243","lat":"121.5803575","tel":"0226510147","company":"萊爾富","cupName":"塑還真"},{"name":"萊爾富便利商店 內湖樂康店","address":"台北市內湖區康樂街136巷18弄1號","city":"台北市","area":"內湖區","long":"25.0718012","lat":"121.6183165","tel":"0226340246","company":"萊爾富","cupName":"塑還真"},{"name":"萊爾富便利商店 大安新台大店","address":"台北市大安區羅斯福路四段1號","city":"台北市","area":"大安區","long":"25.0177484","lat":"121.5402991","tel":"0223620819","company":"萊爾富","cupName":"塑還真"},{"name":"萊爾富便利商店 信義虎林店","address":"台北市信義區虎林街242巷50號、52號","city":"台北市","area":"信義區","long":"25.035824","lat":"121.576551","tel":"0223462612","company":"萊爾富","cupName":"塑還真"},{"name":"萊爾富便利商店 板橋翠華店","address":"新北市板橋區翠華街6巷1號","city":"新北市","area":"板橋區","long":"25.0240172","lat":"121.480339","tel":"傳送到你的手機","company":"萊爾富","cupName":"塑還真"},{"name":"萊爾富便利商店 北市民權二店","address":"台北市松山區民權東路五段32號","city":"台北市","area":"松山區","long":"25.0628844","lat":"121.5644126","tel":"0227609238","company":"萊爾富","cupName":"塑還真"},{"name":"萊爾富便利商店 北縣五工店","address":"新北市五股區五工六路28號","city":"新北市","area":"五股區","long":"25.0639994","lat":"121.4484652","tel":"0222992945","company":"萊爾富","cupName":"塑還真"},{"name":"萊爾富便利商店 北縣重富店","address":"新北市三重區光復路一段85、85-2號","city":"新北市","area":"三重區","long":"25.0503495","lat":"121.4721369","tel":"0229996281","company":"萊爾富","cupName":"塑還真"},{"name":"萊爾富便利商店 北市奇岩店","address":"台北市北投區中央南路二段5號","city":"台北市","area":"北投區","long":"25.1259867","lat":"121.5005555","tel":"0228923112","company":"萊爾富","cupName":"塑還真"},{"name":"萊爾富便利商店 北縣輔園店","address":"新北市新莊區中正路510號","city":"新北市","area":"新莊區","long":"25.0343722","lat":"121.4343775","tel":"0229017165","company":"萊爾富","cupName":"塑還真"},{"name":"萊爾富便利商店 三重重賓店","address":"新北市三重區中正北路415號及417號","city":"新北市","area":"三重區","long":"25.0722616","lat":"121.4705843","tel":"0289785492","company":"萊爾富","cupName":"塑還真"},{"name":"萊爾富便利商店 中山逸仙店","address":"台北市中山區中山北路二段48巷7號B1(4號店鋪","city":"台北市","area":"中山區","long":"25.0558648","lat":"121.5213886","tel":"0289796765","company":"萊爾富","cupName":"塑還真"},{"name":"萊爾富便利商店 松山撫遠店","address":"台北市松山區撫遠街394巷1號","city":"台北市","area":"松山區","long":"25.0649695","lat":"121.5654644","tel":"0227560075","company":"萊爾富","cupName":"塑還真"},{"name":"萊爾富便利商店 五股凌雲店","address":"新北市五股區凌雲路一段81號","city":"新北市","area":"五股區","long":"25.101204","lat":"121.4508486","tel":"0222941821","company":"萊爾富","cupName":"塑還真"},{"name":"萊爾富便利商店 北投北藝大店","address":"台北市北投區學園路1號","city":"台北市","area":"北投區","long":"25.1348842","lat":"121.4712204","tel":"0266172697","company":"萊爾富","cupName":"塑還真"},{"name":"萊爾富便利商店 新竹竹翠店","address":"新竹市東區高翠路172-2號","city":"新竹市","area":"東區","long":"24.7814043","lat":"120.9876799","tel":"035629418","company":"萊爾富","cupName":"塑還真"},{"name":"萊爾富便利商店 新竹竹旺店","address":"新竹市東區光復路二段275之1號","city":"新竹市","area":"東區","long":"24.7999769","lat":"120.9899351","tel":"035715432","company":"萊爾富","cupName":"塑還真"},{"name":"萊爾富便利商店 桃縣桃丹店","address":"桃園市新屋區中山路457號","city":"桃園市","area":"新屋區","long":"24.9733347","lat":"121.0995467","tel":"034970746","company":"萊爾富","cupName":"塑還真"},{"name":"萊爾富便利商店 新竹竹神店","address":"新竹市東區興學街117,119,121號","city":"新竹市","area":"東區","long":"24.7961457","lat":"120.9671556","tel":"035622624","company":"萊爾富","cupName":"塑還真"},{"name":"萊爾富便利商店 中壢壢廣店","address":"桃園市中壢區志廣路81號","city":"桃園市","area":"中壢區","long":"24.9608434","lat":"121.2068881","tel":"034937449","company":"萊爾富","cupName":"塑還真"},{"name":"萊爾富便利商店 平鎮平圳店","address":"桃園市平鎮區洪圳路378-2號","city":"桃園市","area":"平鎮區","long":"24.9044416","lat":"121.2489416","tel":"034503547","company":"萊爾富","cupName":"塑還真"},{"name":"萊爾富便利商店 新埔新田店","address":"新竹縣新埔鎮田新路408-412號","city":"新竹縣","area":"新埔鎮","long":"24.8248634","lat":"121.0776072","tel":"035894882","company":"萊爾富","cupName":"塑還真"},{"name":"萊爾富便利商店 平鎮復梅店","address":"桃園市平鎮區復旦路二段206號","city":"桃園市","area":"平鎮區","long":"24.9460295","lat":"121.2004634","tel":"032860294","company":"萊爾富","cupName":"塑還真"},{"name":"萊爾富便利商店 竹北水岸店","address":"新竹縣竹北市興隆路三段357號","city":"新竹縣","area":"竹北市","long":"24.8042822","lat":"121.029958","tel":"036590247","company":"萊爾富","cupName":"塑還真"},{"name":"萊爾富便利商店 寶山寶鑫店","address":"新竹縣寶山鄉園區二路378號","city":"新竹縣","area":"寶山鄉","long":"24.7617601","lat":"121.0185931","tel":"036590254","company":"萊爾富","cupName":"塑還真"},{"name":"萊爾富便利商店 觀音青荷店","address":"桃園市觀音區新華路二段560號","city":"桃園市","area":"觀音區","long":"25.0105087","lat":"121.136641","tel":"032860145","company":"萊爾富","cupName":"塑還真"},{"name":"萊爾富便利商店 蘆竹錦溪店","address":"桃園市蘆竹區南崁路二段66之2號1F","city":"桃園市","area":"蘆竹區","long":"25.0573898","lat":"121.2787333","tel":"032860250","company":"萊爾富","cupName":"塑還真"},{"name":"萊爾富便利商店 桃園國圳店","address":"桃園市桃園區國際路一段431號","city":"桃園市","area":"桃園區","long":"24.9712384","lat":"121.2891","tel":"032860460","company":"萊爾富","cupName":"塑還真"},{"name":"萊爾富便利商店 桃園至善店","address":"桃園市桃園區中山東路149號","city":"桃園市","area":"桃園區","long":"24.9971447","lat":"121.3182993","tel":"033350051","company":"萊爾富","cupName":"塑還真"},{"name":"萊爾富便利商店 寶山不語店","address":"新竹縣寶山鄉雙園路二段295號","city":"新竹縣","area":"寶山鄉","long":"24.766365","lat":"120.9925929","tel":"035296085","company":"萊爾富","cupName":"塑還真"},{"name":"萊爾富便利商店 大溪慈湖店","address":"桃園市大溪區復興路一段1166號","city":"桃園市","area":"大溪區","long":"24.8411168","lat":"121.2894421","tel":"033872938","company":"萊爾富","cupName":"塑還真"},{"name":"萊爾富便利商店 新竹護城河店","address":"新竹市東區信義街68號","city":"新竹市","area":"東區","long":"24.8029142","lat":"120.9704965","tel":"035221729","company":"萊爾富","cupName":"塑還真"},{"name":"萊爾富便利商店 尖石薰衣草店","address":"新竹縣尖石鄉1號臨1樓部分及嘉樂段227地號部分","city":"新竹縣","area":"尖石鄉","long":"24.7283692","lat":"121.2250481","tel":"035842318","company":"萊爾富","cupName":"塑還真"},{"name":"萊爾富便利商店 觀音大潭店","address":"桃園市觀音區濱海路大潭段302巷9號","city":"桃園市","area":"觀音區","long":"25.026764","lat":"121.064088","tel":"032860233","company":"萊爾富","cupName":"塑還真"},{"name":"萊爾富便利商店 彰縣彰誠店","address":"彰化縣員林市中山南路38號","city":"彰化縣","area":"員林市","long":"23.9552472","lat":"120.5708161","tel":"048376521","company":"萊爾富","cupName":"塑還真"},{"name":"萊爾富便利商店 台中中集店","address":"台中市西屯區福科路541號","city":"台中市","area":"西屯區","long":"24.185293","lat":"120.6173528","tel":"0424619583","company":"萊爾富","cupName":"塑還真"},{"name":"萊爾富便利商店 大里中爽店","address":"台中市大里區爽文路306號","city":"台中市","area":"大里區","long":"24.0978697","lat":"120.6745516","tel":"0424077317","company":"萊爾富","cupName":"塑還真"},{"name":"萊爾富便利商店 苗縣苗銅店","address":"苗栗縣銅鑼鄉中正路96號","city":"苗栗縣","area":"銅鑼鄉","long":"24.4863885","lat":"120.7871799","tel":"037980715","company":"萊爾富","cupName":"塑還真"},{"name":"萊爾富便利商店 中縣中棲店","address":"台中市梧棲區台灣大道八段398-1號","city":"台中市","area":"梧棲區","long":"24.2447074","lat":"120.5514021","tel":"0426630834","company":"萊爾富","cupName":"塑還真"},{"name":"萊爾富便利商店 彰縣彰壇店","address":"彰化縣花壇鄉番花路5號","city":"彰化縣","area":"花壇鄉","long":"24.0201384","lat":"120.5406638","tel":"047882803","company":"萊爾富","cupName":"塑還真"},{"name":"萊爾富便利商店 梧棲市場店","address":"台中市梧棲區自強二街86巷2號","city":"台中市","area":"梧棲區","long":"24.2412373","lat":"120.5300028","tel":"0426380305","company":"萊爾富","cupName":"塑還真"},{"name":"萊爾富便利商店 清水米糕店","address":"台中市清水區西寧路4號","city":"台中市","area":"清水區","long":"24.2705901","lat":"120.5742753","tel":"0426220950","company":"萊爾富","cupName":"塑還真"},{"name":"萊爾富便利商店 斗六雲科大","address":"雲林縣斗六市龍潭里學生活動中心1樓","city":"雲林縣","area":"斗六市","long":"23.6911377","lat":"120.535356","tel":"055362663","company":"萊爾富","cupName":"塑還真"},{"name":"萊爾富便利商店 東勢新伯公","address":"台中市東勢區東關路六段532號","city":"台中市","area":"東勢區","long":"24.2273763","lat":"120.8378901","tel":"0425855852","company":"萊爾富","cupName":"塑還真"},{"name":"萊爾富便利商店 卓蘭水果王","address":"苗栗縣卓蘭鎮","city":"苗栗縣","area":"卓蘭鎮","long":"24.3034152","lat":"120.8321264","tel":"","company":"萊爾富","cupName":"塑還真"},{"name":"萊爾富便利商店 北屯有財神店","address":"台中市北屯區瀋陽路三段345號","city":"台中市","area":"北屯區","long":"24.1724365","lat":"120.6952396","tel":"","company":"萊爾富","cupName":"塑還真"},{"name":"萊爾富便利商店 高縣鳳仁店","address":"高雄市仁武區永宏巷2號","city":"高雄市","area":"仁武區","long":"22.7129705","lat":"120.3381493","tel":"073741417","company":"萊爾富","cupName":"塑還真"},{"name":"萊爾富便利商店 南市海安店","address":"台南市北區臨安路二段215號","city":"台南市","area":"北區","long":"23.003906","lat":"120.1997983","tel":"062585520","company":"萊爾富","cupName":"塑還真"},{"name":"萊爾富便利商店 屏市迪化店","address":"屏東縣屏東市中山路128號","city":"屏東縣","area":"屏東市","long":"22.6815901","lat":"120.4847593","tel":"087345935","company":"萊爾富","cupName":"塑還真"},{"name":"萊爾富便利商店 高市科工店","address":"高雄市三民區九如一路533,535號","city":"高雄市","area":"三民區","long":"22.6391034","lat":"120.326984","tel":"073890536","company":"萊爾富","cupName":"塑還真"},{"name":"萊爾富便利商店 高縣鼎仁店","address":"高雄市仁武區仁雄路467號","city":"高雄市","area":"仁武區","long":"22.673662","lat":"120.3343615","tel":"073758101","company":"萊爾富","cupName":"塑還真"},{"name":"萊爾富便利商店 嘉義啟園店","address":"嘉義市東區啟明路283號","city":"嘉義市","area":"東區","long":"23.4839724","lat":"120.463053","tel":"052940215","company":"萊爾富","cupName":"塑還真"},{"name":"萊爾富便利商店 美濃城門店","address":"高雄市美濃區成功路218號 號","city":"高雄市","area":"美濃區","long":"22.8930984","lat":"120.5493726","tel":"072621218","company":"萊爾富","cupName":"塑還真"},{"name":"萊爾富便利商店 嘉義國興店","address":"嘉義市東區興業東路160號","city":"嘉義市","area":"東區","long":"23.469589","lat":"120.458219","tel":"052949255","company":"萊爾富","cupName":"塑還真"},{"name":"萊爾富便利商店 高市正民店","address":"高雄市苓雅區正言路11,13號","city":"高雄市","area":"苓雅區","long":"22.6297974","lat":"120.3294498","tel":"072621019","company":"萊爾富","cupName":"塑還真"},{"name":"萊爾富便利商店 仁武鳳成店","address":"高雄市仁武區鳳仁路4-6號","city":"高雄市","area":"仁武區","long":"22.6717806","lat":"120.360987","tel":"072621175","company":"萊爾富","cupName":"塑還真"},{"name":"萊爾富便利商店 東港海坪店","address":"屏東縣東港鎮中正路三段87號89號","city":"屏東縣","area":"東港鎮","long":"22.4865469","lat":"120.4723556","tel":"088849014","company":"萊爾富","cupName":"塑還真"},{"name":"萊爾富便利商店 仁武八卦寮店","address":"高雄市仁武區永仁街79-1號","city":"高雄市","area":"仁武區","long":"22.6823985","lat":"120.3305104","tel":"073734726","company":"萊爾富","cupName":"塑還真"},{"name":"萊爾富便利商店 大寮周廣店","address":"高雄市大寮區大寮路742號","city":"高雄市","area":"大寮區","long":"22.5909657","lat":"120.4171171","tel":"077884634","company":"萊爾富","cupName":"塑還真"},{"name":"萊爾富便利商店 文山師大店","address":"台北市文山區汀州路四段88號","city":"台北市","area":"文山區","long":"25.008849077379562","lat":"121.53489186136457","tel":"","company":"萊爾富","cupName":"塑還真"},{"name":"萊爾富便利商店 鶯歌龍正店","address":"新北市鶯歌區尖山路188號1樓","city":"新北市","area":"鶯歌區","long":"24.9474304","lat":"121.3442798","tel":"","company":"萊爾富","cupName":"塑還真"},{"name":"萊爾富便利商店 鶯歌大哥店","address":"新北市鶯歌區尖山路188號1樓","city":"新北市","area":"鶯歌區","long":"24.935676","lat":"121.3282872","tel":"0800818001","company":"萊爾富","cupName":"塑還真"},{"name":"萊爾富便利商店 三重自信店","address":"新北市三重區大智街22號","city":"新北市","area":"三重區","long":"25.0647298","lat":"121.4948771","tel":"0800818001","company":"萊爾富","cupName":"塑還真"},{"name":"萊爾富便利商店 林口捷韻店","address":"新北市林口區文化北路一段123號號1樓","city":"新北市","area":"林口區","long":"25.0686727","lat":"121.3559002","tel":"0800818001","company":"萊爾富","cupName":"塑還真"},{"name":"萊爾富便利商店 中山四通店","address":"台北市中山區長安東路一段53巷1-6號號","city":"台北市","area":"中山區","long":"25.0493086","lat":"121.5265906","tel":"0225816329","company":"萊爾富","cupName":"塑還真"},{"name":"萊爾富便利商店 新竹五福店","address":"新竹市香山區五福路一段486號","city":"新竹市","area":"香山區","long":"24.7450122","lat":"120.9317628","tel":"","company":"萊爾富","cupName":"塑還真"},{"name":"萊爾富便利商店 烏日長春店","address":"台中市烏日區中華路569號","city":"台中市","area":"烏日區","long":"24.1079635","lat":"120.6342503","tel":"","company":"萊爾富","cupName":"塑還真"},{"name":"萊爾富便利商店 梧棲大人店","address":"台中市梧棲區民和路一段69號","city":"台中市","area":"梧棲區","long":"24.2471555","lat":"120.5481128","tel":"","company":"萊爾富","cupName":"塑還真"},{"name":"肯德基 台北萬大餐廳","address":"台北市萬華區萬大路286號","city":"台北市","area":"萬華區","long":"25.0254365","lat":"121.5002768","tel":"0223396627","company":"肯德基","cupName":"好盒器"},{"name":"肯德基 士林文昌餐廳","address":"台北市士林區中正路351號","city":"台北市","area":"士林區","long":"25.09431","lat":"121.522311","tel":"0228823856","company":"肯德基","cupName":"好盒器"},{"name":"肯德基 天母中山餐廳","address":"台北市士林區中山北路六段748號","city":"台北市","area":"士林區","long":"25.11563","lat":"121.5282747","tel":"0228714607","company":"肯德基","cupName":"好盒器"},{"name":"肯德基 文山木柵餐廳","address":"台北市文山區木柵路三段82號","city":"台北市","area":"文山區","long":"24.988492","lat":"121.566806","tel":"0229363525","company":"肯德基","cupName":"好盒器"},{"name":"肯德基 文山興隆餐廳","address":"台北市文山區興隆路三段9號","city":"台北市","area":"文山區","long":"25.0008915","lat":"121.5548936","tel":"0229311136","company":"肯德基","cupName":"好盒器"},{"name":"肯德基 永和中正餐廳","address":"新北市永和區中正路294號","city":"新北市","area":"永和區","long":"24.9990095","lat":"121.5172547","tel":"0286686971","company":"肯德基","cupName":"好盒器"},{"name":"肯德基 永和中山餐廳","address":"新北市永和區中山路一段173號","city":"新北市","area":"永和區","long":"25.0091169","lat":"121.509768","tel":"0229271558","company":"肯德基","cupName":"好盒器"},{"name":"肯德基 新莊輔大餐廳","address":"新北市新莊區中正路516-3號","city":"新北市","area":"新莊區","long":"25.03246","lat":"121.433307","tel":"0229012059","company":"肯德基","cupName":"好盒器"},{"name":"肯德基 三重重新二餐廳","address":"新北市三重區重新路二段1-1號","city":"新北市","area":"三重區","long":"25.063034","lat":"121.499554","tel":"0289828168","company":"肯德基","cupName":"好盒器"},{"name":"肯德基 淡水中山二餐廳","address":"新北市淡水區中山路24號","city":"新北市","area":"淡水區","long":"25.1696359","lat":"121.4444395","tel":"0226206385","company":"肯德基","cupName":"好盒器"},{"name":"麥當勞 台北莊敬餐廳","address":"台北市信義區莊敬路475號","city":"台北市","area":"信義區","long":"25.0268661","lat":"121.5682139","tel":"0287800218","company":"麥當勞","cupName":"好盒器"},{"name":"麥當勞 台北光復餐廳","address":"台北市大安區光復南路286號","city":"台北市","area":"大安區","long":"25.0395456","lat":"121.5574188","tel":"0227415210","company":"麥當勞","cupName":"好盒器"},{"name":"麥當勞 台北信義餐廳","address":"台北市大安區信義路四段273號","city":"台北市","area":"大安區","long":"25.0333281","lat":"121.5545596","tel":"0227038921","company":"麥當勞","cupName":"好盒器"},{"name":"麥當勞 忠孝五餐廳","address":"台北市大安區忠孝東路四段73-1號","city":"台北市","area":"大安區","long":"25.0418694","lat":"121.5469653","tel":"0227726530","company":"麥當勞","cupName":"好盒器"},{"name":"麥當勞 復興二餐廳","address":"台中市南區復興路二段6-1號號1樓","city":"台中市","area":"南區","long":"24.1172229","lat":"120.658118","tel":"0422610232","company":"麥當勞","cupName":"好盒器"},{"name":"麥當勞 台北濟南餐廳","address":"台北市中正區濟南路二段66號1樓","city":"台北市","area":"中正區","long":"25.0400737","lat":"121.53261","tel":"0223958275","company":"麥當勞","cupName":"好盒器"},{"name":"麥當勞 台北新生餐廳","address":"台北市大安區新生南路三段88之2號","city":"台北市","area":"大安區","long":"25.01821","lat":"121.5333445","tel":"0223620668","company":"麥當勞","cupName":"好盒器"},{"name":"麥當勞 台北台大餐廳","address":"台北市大安區羅斯福路四段1號","city":"台北市","area":"大安區","long":"25.0182725","lat":"121.5401944","tel":"0223621290","company":"麥當勞","cupName":"好盒器"},{"name":"麥當勞 台北公館餐廳","address":"台北市中正區羅斯福路四段76-1號","city":"台北市","area":"中正區","long":"25.014231","lat":"121.5346063","tel":"0223661123","company":"麥當勞","cupName":"好盒器"},{"name":"麥當勞 長春餐廳","address":"台北市中山區長春路172號","city":"台北市","area":"中山區","long":"25.0546723","lat":"121.5337613","tel":"0225042797","company":"麥當勞","cupName":"好盒器"},{"name":"麥當勞 台南大學旗艦專櫃餐廳","address":"台南市東區大學路26號","city":"台南市","area":"東區","long":"22.995859","lat":"120.2214129","tel":"062373472","company":"麥當勞","cupName":"好盒器"},{"name":"麥當勞 台南民族餐廳","address":"台南市中西區西華南街65號","city":"台南市","area":"中西區","long":"22.9947109","lat":"120.2094639","tel":"062240686","company":"麥當勞","cupName":"好盒器"},{"name":"麥當勞 台南東門旗艦專櫃餐廳","address":"台南市東區東門路二段353號1樓","city":"台南市","area":"東區","long":"22.9825572","lat":"120.2278216","tel":"062091322","company":"麥當勞","cupName":"好盒器"},{"name":"麥當勞 台南西門二餐廳","address":"台南市北區西門路四段66號","city":"台南市","area":"北區","long":"23.0072904","lat":"120.2067574","tel":"062816885","company":"麥當勞","cupName":"好盒器"},{"name":"麥當勞 台南健康餐廳","address":"台南市中西區健康路1段48號1樓","city":"台南市","area":"中西區","long":"22.981342","lat":"120.2105149","tel":"062146072","company":"麥當勞","cupName":"好盒器"},{"name":"麥當勞 台南西門餐廳","address":"台南市中西區西門路二段96號","city":"台南市","area":"中西區","long":"22.9928693","lat":"120.1987891","tel":"062200828","company":"麥當勞","cupName":"好盒器"},{"name":"摩斯漢堡 康寧店","address":"台北市內湖區成功路五段63號","city":"台北市","area":"內湖區","long":"25.0740049","lat":"121.6060285","tel":"0226338221","company":"摩斯漢堡","cupName":"專屬循環杯"},{"name":"摩斯漢堡 敦北店","address":"台北市松山區敦化北路155巷1號","city":"台北市","area":"松山區","long":"25.0542225","lat":"121.549719","tel":"0225149424","company":"摩斯漢堡","cupName":"專屬循環杯"},{"name":"摩斯漢堡 羅斯福路店","address":"台北市大安區羅斯福路三段233號","city":"台北市","area":"大安區","long":"25.019468","lat":"121.529766","tel":"0233652482","company":"摩斯漢堡","cupName":"專屬循環杯"},{"name":"摩斯漢堡 和平東路店","address":"台北市大安區和平東路一段278號","city":"台北市","area":"大安區","long":"25.0259486","lat":"121.5341732","tel":"0233653341","company":"摩斯漢堡","cupName":"專屬循環杯"},{"name":"摩斯漢堡 康華店","address":"台北市中山區松江路274號","city":"台北市","area":"中山區","long":"25.0597782","lat":"121.5329477","tel":"0225310561","company":"摩斯漢堡","cupName":"專屬循環杯"},{"name":"摩斯漢堡 北醫吳興店","address":"台北市信義區吳興街243號","city":"台北市","area":"信義區","long":"25.0274343","lat":"121.56352","tel":"0227294742","company":"摩斯漢堡","cupName":"專屬循環杯"},{"name":"摩斯漢堡 台大公館店","address":"台北市中正區羅斯福路三段306號1、2樓","city":"台北市","area":"中正區","long":"25.0161961","lat":"121.5324964","tel":"0223656373","company":"摩斯漢堡","cupName":"專屬循環杯"},{"name":"摩斯漢堡 新莊五權店","address":"新北市新莊區五權一路42號","city":"新北市","area":"新莊區","long":"25.0655903","lat":"121.4576792","tel":"0222992263","company":"摩斯漢堡","cupName":"專屬循環杯"},{"name":"摩斯漢堡 汐止台五店","address":"新北市汐止區新台五路一段171號","city":"新北市","area":"汐止區","long":"25.0629197","lat":"121.6547194","tel":"0226919967","company":"摩斯漢堡","cupName":"專屬循環杯"},{"name":"摩斯漢堡 新莊化成店","address":"新北市新莊區新北大道二段312號","city":"新北市","area":"新莊區","long":"25.06126","lat":"121.4641393","tel":"0285215400","company":"摩斯漢堡","cupName":"專屬循環杯"},{"name":"摩斯漢堡 三重重陽店","address":"新北市三重區重陽路三段97號","city":"新北市","area":"三重區","long":"25.0679264","lat":"121.4903783","tel":"0229861575","company":"摩斯漢堡","cupName":"專屬循環杯"},{"name":"摩斯漢堡 桃園經國店","address":"桃園市桃園區經國路451-1號","city":"桃園市","area":"桃園區","long":"25.0191367","lat":"121.3041458","tel":"033579437","company":"摩斯漢堡","cupName":"專屬循環杯"},{"name":"摩斯漢堡 桃園藝文廣場店","address":"桃園市桃園區中正路1121號","city":"桃園市","area":"桃園區","long":"25.0174388","lat":"121.2976802","tel":"033564005","company":"摩斯漢堡","cupName":"專屬循環杯"},{"name":"摩斯漢堡 台中學士店","address":"台中市北區學士路300號","city":"台中市","area":"北區","long":"24.1623539","lat":"120.6810808","tel":"0422356576","company":"摩斯漢堡","cupName":"專屬循環杯"},{"name":"摩斯漢堡 曉明女中店","address":"台中市北區中清路一段608號","city":"台中市","area":"北區","long":"24.1681885","lat":"120.673028","tel":"0422918252","company":"摩斯漢堡","cupName":"專屬循環杯"},{"name":"摩斯漢堡 台中西屯店","address":"台中市北區西屯路一段363-1號","city":"台中市","area":"北區","long":"24.1611934","lat":"120.6647032","tel":"0423235993","company":"摩斯漢堡","cupName":"專屬循環杯"},{"name":"摩斯漢堡 高雄澄清店","address":"高雄市三民區澄清路458號","city":"高雄市","area":"三民區","long":"22.6413004","lat":"120.3458153","tel":"077774458","company":"摩斯漢堡","cupName":"專屬循環杯"},{"name":"摩斯漢堡 髙雄大順店","address":"高雄市三民區大順二路853號","city":"高雄市","area":"三民區","long":"22.6535222","lat":"120.3186957","tel":"073909884","company":"摩斯漢堡","cupName":"專屬循環杯"},{"name":"摩斯漢堡 花蓮中山店","address":"花蓮縣花蓮市中山路549之1號","city":"花蓮縣","area":"花蓮市","long":"23.9870378","lat":"121.6013978","tel":"038316735","company":"摩斯漢堡","cupName":"專屬循環杯"},{"name":"摩斯漢堡 長安松江店","address":"台北市中山區長安東路二段66號","city":"台北市","area":"中山區","long":"25.0483277","lat":"121.533517","tel":"0225077731","company":"摩斯漢堡","cupName":"專屬循環杯"},{"name":"星巴克 時代B2門市","address":"台北市信義區忠孝東路五段8號","city":"台北市","area":"信義區","long":"25.0408461","lat":"121.5653963","tel":"0227235871","company":"星巴克","cupName":"OPEN iECO"},{"name":"星巴克 後山埤門市","address":"台北市南港區忠孝東路五段968號","city":"台北市","area":"南港區","long":"25.0442284","lat":"121.5822249","tel":"0226538532","company":"星巴克","cupName":"OPEN iECO"},{"name":"星巴克 瑞傳門市","address":"台北市內湖區瑞光路476號","city":"台北市","area":"內湖區","long":"25.0785358","lat":"121.5695144","tel":"0287983266","company":"星巴克","cupName":"OPEN iECO"},{"name":"星巴克 洲子門市","address":"台北市內湖區洲子街48號","city":"台北市","area":"內湖區","long":"25.0790278","lat":"121.5732998","tel":"預訂","company":"星巴克","cupName":"OPEN iECO"},{"name":"星巴克 大直樂群門市","address":"台北市中山區樂群二路267號","city":"台北市","area":"中山區","long":"25.0801789","lat":"121.5603852","tel":"0285012733","company":"星巴克","cupName":"OPEN iECO"},{"name":"星巴克 基湖門市","address":"台北市內湖區基湖路25號","city":"台北市","area":"內湖區","long":"25.0803831","lat":"121.565101","tel":"0227999334","company":"星巴克","cupName":"OPEN iECO"},{"name":"星巴克 西湖門市","address":"台北市內湖區內湖路一段360巷2-1號","city":"台北市","area":"內湖區","long":"25.081135","lat":"121.570528","tel":"0226276027","company":"星巴克","cupName":"OPEN iECO"},{"name":"星巴克 環山門市","address":"台北市內湖區內湖路一段289號","city":"台北市","area":"內湖區","long":"25.0823529","lat":"121.5670921","tel":"0227995897","company":"星巴克","cupName":"OPEN iECO"},{"name":"星巴克 大直植福門市","address":"台北市中山區敬業二路115號","city":"台北市","area":"中山區","long":"25.0831842","lat":"121.5542575","tel":"0285027502","company":"星巴克","cupName":"OPEN iECO"},{"name":"星巴克 美麗華門市","address":"台北市中山區敬業三路20號1樓","city":"台北市","area":"中山區","long":"25.0836018","lat":"121.5567386","tel":"0221753190","company":"星巴克","cupName":"OPEN iECO"},{"name":"星巴克 龜山迴龍門市","address":"桃園市龜山區萬壽路一段166號","city":"桃園市","area":"龜山區","long":"25.0182584","lat":"121.4054764","tel":"0282000311","company":"星巴克","cupName":"OPEN iECO"},{"name":"星巴克 廣達門市","address":"桃園市龜山區文化二路211號","city":"桃園市","area":"龜山區","long":"25.050367","lat":"121.3748442","tel":"033185272","company":"星巴克","cupName":"OPEN iECO"},{"name":"星巴克 環球A8門市","address":"桃園市龜山區復興一路8號","city":"桃園市","area":"龜山區","long":"25.0603286","lat":"121.3698312","tel":"033272553","company":"星巴克","cupName":"OPEN iECO"},{"name":"星巴克 龜山復興門市","address":"桃園市龜山區復興北路1號","city":"桃園市","area":"龜山區","long":"25.0599139","lat":"121.3687677","tel":"033184610","company":"星巴克","cupName":"OPEN iECO"},{"name":"星巴克 林口門市","address":"桃園市龜山區復興一路202號","city":"桃園市","area":"龜山區","long":"25.0579625","lat":"121.3659003","tel":"033277817","company":"星巴克","cupName":"OPEN iECO"},{"name":"星巴克 龜山萬壽門市","address":"桃園市龜山區萬壽路二段1202號1樓","city":"桃園市","area":"龜山區","long":"24.9934976","lat":"121.3313398","tel":"033205313","company":"星巴克","cupName":"OPEN iECO"},{"name":"星巴克 大有三越門市","address":"桃園市桃園區大有路189號1樓","city":"桃園市","area":"桃園區","long":"25.0084672","lat":"121.3201718","tel":"033314825","company":"星巴克","cupName":"OPEN iECO"},{"name":"星巴克 桃鶯門市","address":"桃園市桃園區桃鶯路192之1號","city":"桃園市","area":"桃園區","long":"24.9823572","lat":"121.318988","tel":"033765172","company":"星巴克","cupName":"OPEN iECO"},{"name":"星巴克 桃園成功門市","address":"桃園市桃園區成功路一段2-1號","city":"桃園市","area":"桃園區","long":"24.993073","lat":"121.3132118","tel":"033478230","company":"星巴克","cupName":"OPEN iECO"},{"name":"星巴克 桃園台鐵門市","address":"桃園市桃園區中正路1號2樓","city":"桃園市","area":"桃園區","long":"24.9888878","lat":"121.3143681","tel":"033679014","company":"星巴克","cupName":"OPEN iECO"},{"name":"星巴克 桃園遠百門市","address":"桃園市桃園區中正路20號B1","city":"桃園市","area":"桃園區","long":"24.9897388","lat":"121.3137948","tel":"033321938","company":"星巴克","cupName":"OPEN iECO"},{"name":"星巴克 經國門市","address":"桃園市桃園區經國路369號","city":"桃園市","area":"桃園區","long":"25.0163191","lat":"121.3049942","tel":"033466137","company":"星巴克","cupName":"OPEN iECO"},{"name":"星巴克 經國二門市","address":"桃園市桃園區經國路737號","city":"桃園市","area":"桃園區","long":"25.0252042","lat":"121.30138","tel":"033461905","company":"星巴克","cupName":"OPEN iECO"},{"name":"星巴克 桃園藝文門市","address":"桃園市桃園區同德五街61號1樓","city":"桃園市","area":"桃園區","long":"25.0145221","lat":"121.3005132","tel":"033150432","company":"星巴克","cupName":"OPEN iECO"},{"name":"星巴克 桃園縣府門市","address":"桃園市桃園區縣府路116號","city":"桃園市","area":"桃園區","long":"24.9944782","lat":"121.3020477","tel":"033316833","company":"星巴克","cupName":"OPEN iECO"},{"name":"星巴克 桃興門市","address":"桃園市桃園區大興西路二段76巷6號","city":"桃園市","area":"桃園區","long":"25.0118998","lat":"121.2984011","tel":"033016316","company":"星巴克","cupName":"OPEN iECO"},{"name":"星巴克 南崁特力門市","address":"桃園市蘆竹區中正路1號1樓","city":"桃園市","area":"蘆竹區","long":"25.0401823","lat":"121.2947327","tel":"預訂","company":"星巴克","cupName":"OPEN iECO"},{"name":"星巴克 南崁門市","address":"桃園市蘆竹區南山路一段2-5號","city":"桃園市","area":"蘆竹區","long":"25.0495098","lat":"121.2918295","tel":"預訂","company":"星巴克","cupName":"OPEN iECO"},{"name":"星巴克 桃園台茂門市","address":"桃園市蘆竹區南崁路一段112號1F","city":"桃園市","area":"蘆竹區","long":"25.0531286","lat":"121.288576","tel":"預訂","company":"星巴克","cupName":"OPEN iECO"},{"name":"星巴克 桃園國際門市","address":"桃園市桃園區國際路二段468號","city":"桃園市","area":"桃園區","long":"24.9995813","lat":"121.288172","tel":"032171560","company":"星巴克","cupName":"OPEN iECO"},{"name":"星巴克 八德桃大門市","address":"桃園市八德區金和路35號1 樓","city":"桃園市","area":"八德區","long":"24.9551097","lat":"121.2973424","tel":"033648188","company":"星巴克","cupName":"OPEN iECO"},{"name":"星巴克 桃園中山門市","address":"桃園市桃園區中山路879號","city":"桃園市","area":"桃園區","long":"24.9887449","lat":"121.2865612","tel":"033783662","company":"星巴克","cupName":"OPEN iECO"},{"name":"星巴克 桃愛門市","address":"桃園市桃園區中山路939號","city":"桃園市","area":"桃園區","long":"24.9848752","lat":"121.2856466","tel":"預訂","company":"星巴克","cupName":"OPEN iECO"},{"name":"星巴克 蘆竹大竹門市","address":"桃園市蘆竹區大竹路430-1號","city":"桃園市","area":"蘆竹區","long":"25.021382","lat":"121.2636449","tel":"033133112","company":"星巴克","cupName":"OPEN iECO"},{"name":"星巴克 中壢休息站門市","address":"桃園市中壢區內定二街998之3號","city":"桃園市","area":"中壢區","long":"25.0042939","lat":"121.2519243","tel":"034621343","company":"星巴克","cupName":"OPEN iECO"},{"name":"星巴克 內壢環中東門市","address":"桃園市中壢區環中東路168號","city":"桃園市","area":"中壢區","long":"24.9641707","lat":"121.2576175","tel":"034611764","company":"星巴克","cupName":"OPEN iECO"},{"name":"星巴克 大溪門市","address":"桃園市大溪區慈湖路49號","city":"桃園市","area":"大溪區","long":"24.8826247","lat":"121.2891141","tel":"033878327","company":"星巴克","cupName":"OPEN iECO"},{"name":"星巴克 內壢中華門市","address":"桃園市中壢區中華路一段669號","city":"桃園市","area":"中壢區","long":"24.9688565","lat":"121.2502288","tel":"034614658","company":"星巴克","cupName":"OPEN iECO"},{"name":"星巴克 中原大學門市","address":"桃園市中壢區中北路200號","city":"桃園市","area":"中壢區","long":"24.9572005","lat":"121.2408465","tel":"預訂","company":"星巴克","cupName":"OPEN iECO"},{"name":"星巴克 中壢大潤發門市","address":"桃園市中壢區中北路二段468號1 樓","city":"桃園市","area":"中壢區","long":"24.9542139","lat":"121.2345293","tel":"預訂","company":"星巴克","cupName":"OPEN iECO"},{"name":"星巴克 華泰三期門市","address":"桃園市中壢區春德路159號","city":"桃園市","area":"中壢區","long":"25.0165444","lat":"121.2162363","tel":"032871584","company":"星巴克","cupName":"OPEN iECO"},{"name":"星巴克 中壢元化門市","address":"桃園市中壢區元化路305號1F","city":"桃園市","area":"中壢區","long":"24.9622355","lat":"121.2251657","tel":"034260162","company":"星巴克","cupName":"OPEN iECO"},{"name":"星巴克 中壢海華門市","address":"桃園市中壢區九和二街13號","city":"桃園市","area":"中壢區","long":"24.9632358","lat":"121.2236023","tel":"034270047","company":"星巴克","cupName":"OPEN iECO"},{"name":"星巴克 青埔門市","address":"桃園市中壢區高鐵北路一段6號","city":"桃園市","area":"中壢區","long":"25.0132711","lat":"121.2152498","tel":"032635299","company":"星巴克","cupName":"OPEN iECO"},{"name":"星巴克 復興門市","address":"桃園市中壢區中山路138號","city":"桃園市","area":"中壢區","long":"24.9559727","lat":"121.2248001","tel":"032804279","company":"星巴克","cupName":"OPEN iECO"},{"name":"星巴克 青埔影城門市","address":"桃園市中壢區春德路107號","city":"桃園市","area":"中壢區","long":"25.0167718","lat":"121.2134139","tel":"032875974","company":"星巴克","cupName":"OPEN iECO"},{"name":"星巴克 青埔華泰門市","address":"桃園市中壢區春德路189號1F","city":"桃園市","area":"中壢區","long":"25.0129732","lat":"121.2121716","tel":"032870084","company":"星巴克","cupName":"OPEN iECO"},{"name":"星巴克 青埔高鐵南門市","address":"桃園市中壢區高鐵南路二段231號","city":"桃園市","area":"中壢區","long":"25.0033497","lat":"121.2055411","tel":"032875362","company":"星巴克","cupName":"OPEN iECO"},{"name":"星巴克 大園門市","address":"桃園市大園區中正東路232號","city":"桃園市","area":"大園區","long":"25.0614501","lat":"121.2035768","tel":"033864842","company":"星巴克","cupName":"OPEN iECO"},{"name":"星巴克 平鎮民族門市","address":"桃園市平鎮區民族路二段209號","city":"桃園市","area":"平鎮區","long":"24.956899","lat":"121.2029802","tel":"032811391","company":"星巴克","cupName":"OPEN iECO"},{"name":"星巴克 龍潭中科院門市","address":"桃園市龍潭區北龍路292號","city":"桃園市","area":"龍潭區","long":"24.8679546","lat":"121.2181211","tel":"034708676","company":"星巴克","cupName":"OPEN iECO"},{"name":"星巴克 龍潭門市","address":"桃園市龍潭區北龍路292號","city":"桃園市","area":"龍潭區","long":"24.8679546","lat":"121.2181211","tel":"034708676","company":"星巴克","cupName":"OPEN iECO"},{"name":"星巴克 楊梅埔心門市","address":"桃園市楊梅區中山北路二段287號","city":"桃園市","area":"楊梅區","long":"24.9111078","lat":"121.1743282","tel":"034826825","company":"星巴克","cupName":"OPEN iECO"},{"name":"星巴克 楊梅中山門市","address":"桃園市楊梅區中山北路一段338號","city":"桃園市","area":"楊梅區","long":"24.9085557","lat":"121.156835","tel":"034784357","company":"星巴克","cupName":"OPEN iECO"},{"name":"星巴克 台北時代門市","address":"台北市信義區忠孝東路五段8號2F","city":"台北市","area":"信義區","long":"25.04081704076959","lat":"121.56544784957708","tel":"0227226292","company":"星巴克","cupName":"OPEN iECO"},{"name":"星巴克 長庚文化門市","address":"桃園市龜山區文化二路11-5號","city":"桃園市","area":"龜山區","long":"25.059753324173972","lat":"121.36544915498555","tel":"033272311","company":"星巴克","cupName":"OPEN iECO"},{"name":"星巴克 八德介壽門市","address":"桃園市八德區介壽路一段728號1F-5號","city":"桃園市","area":"八德區","long":"24.965117217500353","lat":"121.29893399731334","tel":"033742530","company":"星巴克","cupName":"OPEN iECO"},{"name":"星巴克 內壢門市","address":"桃園市中壢區中華路一段450號","city":"桃園市","area":"中壢區","long":"24.972545022702075","lat":"121.25332219731352","tel":"034611770","company":"星巴克","cupName":"OPEN iECO"},{"name":"星巴克 中壢大江門市","address":"桃園市中壢區中華路一段450號","city":"桃園市","area":"中壢區","long":"25.001669118985575","lat":"121.22865379731388","tel":"034680130","company":"星巴克","cupName":"OPEN iECO"},{"name":"星巴克 平鎮家樂福門市","address":"桃園市平鎮區坤慶路1號","city":"桃園市","area":"平鎮區","long":"24.902620464820416","lat":"121.2122730973122","tel":"034192905","company":"星巴克","cupName":"OPEN iECO"},{"name":"蝦皮店到店 松菸旗艦店","address":"台北市信義區忠孝東路四段553巷24號1樓","city":"台北市","area":"信義區","long":"25.043406","lat":"121.562915","tel":"0266366559","company":"其他","cupName":"uCup"},{"name":"蝦皮店到店 文山興隆店","address":"台北市文山區興隆路一段86號1樓","city":"台北市","area":"文山區","long":"25.0032559","lat":"121.5409948","tel":"0266366559","company":"其他","cupName":"uCup"},{"name":"路易莎咖啡三峽學成店","address":"新北市三峽區學成路325號","city":"新北市","area":"三峽區","long":"24.944672","lat":"121.3770388","tel":"0226718870","company":"其他","cupName":"uCup"},{"name":"檠豊鮮果汁","address":"台北市大安區和平東路一段162號樂智樓","city":"台北市","area":"大安區","long":"25.0259126","lat":"121.5283135","tel":"0223670963","company":"其他","cupName":"uCup"},{"name":"三峽元氣早餐店","address":"新北市三峽區大觀路105號","city":"新北市","area":"三峽區","long":"24.9450107","lat":"121.3747408","tel":"0226725760","company":"其他","cupName":"uCup"},{"name":"TC shop","address":"台北市大安區和平東路二段118巷62號","city":"台北市","area":"大安區","long":"25.0218452","lat":"121.5427998","tel":"0227380886","company":"其他","cupName":"uCup"},{"name":"龜記 公館店","address":"台北市中正區汀州路三段174-1號","city":"台北市","area":"中正區","long":"25.0131979","lat":"121.5346735","tel":"0223660667","company":"其他","cupName":"uCup"},{"name":"早餐優選 北大店","address":"新北市樹林區學林路47號","city":"新北市","area":"樹林區","long":"24.9490452","lat":"121.3778416","tel":"0235017903","company":"其他","cupName":"uCup"},{"name":"酪農初茶","address":"台北市文山區指南路二段58號","city":"台北市","area":"文山區","long":"24.9876388","lat":"121.575655","tel":"0919272932","company":"其他","cupName":"uCup"},{"name":"TeleportCafe 傳送咖啡","address":"台北市大安區泰順街40巷38號1樓","city":"台北市","area":"大安區","long":"25.0241907","lat":"121.5296274","tel":"0966955147","company":"其他","cupName":"uCup"},{"name":"Drink store水雲堂台灣大學店","address":"台北市大安區羅斯福路四段1號第一活動中心國立臺灣大學","city":"台北市","area":"大安區","long":"25.0180298","lat":"121.5403847","tel":"0223661686","company":"其他","cupName":"uCup"},{"name":"丹丹漢堡 西子灣店","address":"高雄市鼓山區臨海二路24號高雄捷運西子灣站","city":"高雄市","area":"鼓山區","long":"22.6223566","lat":"120.2733317","tel":"075330573","company":"其他","cupName":"uCup"},{"name":"丹丹漢堡 瀋陽店","address":"高雄市三民區瀋陽街158號","city":"高雄市","area":"三民區","long":"22.6443569","lat":"120.3075975","tel":"073156565","company":"其他","cupName":"uCup"},{"name":"清大水木餐廳","address":"新竹市東區光復路二段101號","city":"新竹市","area":"東區","long":"24.7921988","lat":"120.9943571","tel":"035717708","company":"其他","cupName":"uCup"},{"name":"蝦皮店到店 三峽大義店","address":"新北市三峽區大義路193號","city":"新北市","area":"三峽區","long":"24.9452956","lat":"121.3775608","tel":"0266366559","company":"其他","cupName":"uCup"},{"name":"全聯高雄三民陽明門市","address":"高雄市三民區陽明路300號","city":"高雄市","area":"三民區","long":"22.643353","lat":"120.3423939","tel":"073810591","company":"其他","cupName":"uCup"},{"name":"全聯高雄九如門市","address":"高雄市三民區九如一路609號","city":"高雄市","area":"三民區","long":"22.6392675","lat":"120.3252503","tel":"073801671","company":"其他","cupName":"uCup"},{"name":"全聯高雄自強門市","address":"高雄市三民區自強一路245號","city":"高雄市","area":"三民區","long":"22.635931","lat":"120.2911058","tel":"072010881","company":"其他","cupName":"uCup"},{"name":"全聯三民金獅湖門市","address":"高雄市三民區鼎力路15、17、19、21號","city":"高雄市","area":"三民區","long":"22.6624589","lat":"120.3215983","tel":"073103722","company":"其他","cupName":"uCup"},{"name":"全聯高雄大昌門市","address":"高雄市三民區大昌二路525號","city":"高雄市","area":"三民區","long":"22.6513279","lat":"120.3301501","tel":"073800272","company":"其他","cupName":"uCup"},{"name":"全聯高雄建工門市","address":"高雄市三民區建工路736號","city":"高雄市","area":"三民區","long":"22.6486341","lat":"120.3195884","tel":"073820860","company":"其他","cupName":"uCup"},{"name":"全聯高雄明誠門市","address":"高雄市三民區明誠一路358號","city":"高雄市","area":"三民區","long":"22.6601168","lat":"120.324011","tel":"073428178","company":"其他","cupName":"uCup"},{"name":"Health Bakery","address":"新北市土城區金城路三段73巷4弄2號","city":"新北市","area":"土城區","long":"24.987662","lat":"121.4663581","tel":"0222626277","company":"其他","cupName":"uCup"},{"name":"全聯高雄大昌二門市","address":"高雄市三民區大昌二路146號","city":"高雄市","area":"三民區","long":"22.644329","lat":"120.3322836","tel":"073816489","company":"其他","cupName":"uCup"},{"name":"愛買 南雅店","address":"新北市板橋區貴興路101號","city":"新北市","area":"板橋區","long":"25.001785","lat":"121.4568406","tel":"0800002088","company":"其他","cupName":"uCup"},{"name":"全聯高雄有光門市","address":"高雄市三民區有光路43號","city":"高雄市","area":"三民區","long":"22.6369088","lat":"120.3340132","tel":"073821707","company":"其他","cupName":"uCup"},{"name":"OH! Sugar","address":"新北市三峽區大學路151號心湖會館","city":"新北市","area":"三峽區","long":"24.9422122","lat":"121.3694869","tel":"0905978029","company":"其他","cupName":"uCup"},{"name":"老家Black Tea (Old Place)","address":"新北市三峽區中山路37號","city":"新北市","area":"三峽區","long":"24.9344206","lat":"121.3682438","tel":"0226713930","company":"其他","cupName":"uCup"},{"name":"蕉ㄚ吐司","address":"新北市三峽區大觀路120號","city":"新北市","area":"三峽區","long":"24.9474129","lat":"121.3734363","tel":"0286717180","company":"其他","cupName":"uCup"},{"name":"茗釀茶品清大總店","address":"新竹市東區建新路28號","city":"新竹市","area":"東區","long":"24.7980527","lat":"120.9967953","tel":"035728356","company":"其他","cupName":"uCup"},{"name":"小木屋鬆餅三峽北大店","address":"新北市三峽區大學路151 號商學院大樓1F14","city":"新北市","area":"三峽區","long":"24.9457619","lat":"121.3721187","tel":"0226730583","company":"其他","cupName":"uCup"},{"name":"義網無際八車一店","address":"高雄市大樹區學城路一段1號義大郵局對面","city":"高雄市","area":"大樹區","long":"22.7268897","lat":"120.406424","tel":"076577711#2777","company":"其他","cupName":"uCup"},{"name":"黑糖奶奶三犬本舖 十全2號舖","address":"高雄市三民區十全一路347號","city":"高雄市","area":"三民區","long":"22.6450584","lat":"120.3062123","tel":"073133369","company":"其他","cupName":"uCup"},{"name":"ISIS 伊希詩冷飲專賣","address":"新北市三峽區大學路109-1號","city":"新北市","area":"三峽區","long":"24.9420845","lat":"121.3756495","tel":"0235012199","company":"其他","cupName":"uCup"},{"name":"慢思 Amour.Sacrifice總店","address":"新北市三峽區國際二街25號","city":"新北市","area":"三峽區","long":"24.9433193","lat":"121.3729248","tel":"0226742313","company":"其他","cupName":"uCup"},{"name":"愛茶咖 i - Cha Ca Coffee &amp; Tea","address":"新北市三峽區民權街117號","city":"新北市","area":"三峽區","long":"24.932275","lat":"121.369141","tel":"0958057650","company":"其他","cupName":"uCup"},{"name":"誠心良品","address":"高雄市三民區青島街108號","city":"高雄市","area":"三民區","long":"22.6441217","lat":"120.3104362","tel":"073117705","company":"其他","cupName":"uCup"},{"name":"美式早餐屋 北大學林店","address":"新北市樹林區學林路62-66號","city":"新北市","area":"樹林區","long":"24.9489592","lat":"121.3781504","tel":"0289701128","company":"其他","cupName":"uCup"},{"name":"意合堂","address":"高雄市苓雅區林泉街30號","city":"高雄市","area":"苓雅區","long":"22.6233949","lat":"120.3188629","tel":"077240660","company":"其他","cupName":"uCup"},{"name":"果汁家 冷.熱飲專賣店-嫩江店","address":"高雄市三民區嫩江街108號","city":"高雄市","area":"三民區","long":"22.644072","lat":"120.298628","tel":"073215103","company":"其他","cupName":"uCup"},{"name":"黑糖奶奶三犬本舖 光華1號舖","address":"高雄市苓雅區光華一路66號","city":"高雄市","area":"苓雅區","long":"22.619825","lat":"120.317395","tel":"077226379","company":"其他","cupName":"uCup"},{"name":"黑糖奶奶三犬本舖 鳳山3號舖","address":"高雄市鳳山區青年路二段582號","city":"高雄市","area":"鳳山區","long":"22.6462399","lat":"120.3489186","tel":"077777061","company":"其他","cupName":"uCup"},{"name":"Halla Café","address":"新北市三峽區學成路155號","city":"新北市","area":"三峽區","long":"24.9419114","lat":"121.3741324","tel":"0226718882","company":"其他","cupName":"uCup"},{"name":"蔡喬-古早味紅茶-泰安店","address":"高雄市三民區泰安街54號","city":"高雄市","area":"三民區","long":"22.6443171","lat":"120.3105815","tel":"073223538","company":"其他","cupName":"uCup"},{"name":"茶茶小王子 X 小農飯盒-台大店","address":"台北市大安區羅斯福路四段1號學新館","city":"台北市","area":"大安區","long":"25.0145185","lat":"121.53792","tel":"0223670255","company":"其他","cupName":"uCup"},{"name":"蔡喬-古早味紅茶-大明店","address":"高雄市鳳山區大明路252號","city":"高雄市","area":"鳳山區","long":"22.6123644","lat":"120.341581","tel":"077672229","company":"其他","cupName":"uCup"},{"name":"全聯高雄博愛門市","address":"高雄市三民區博愛一路229號","city":"高雄市","area":"三民區","long":"22.648007","lat":"120.3030807","tel":"073235033","company":"其他","cupName":"uCup"},{"name":"全聯高雄明仁門市","address":"高雄市三民區明仁路57號","city":"高雄市","area":"三民區","long":"22.6616045","lat":"120.3142726","tel":"073431528","company":"其他","cupName":"uCup"},{"name":"蝦皮店到店 大同重慶三店","address":"台北市大同區重慶北路二段233號1樓","city":"台北市","area":"大同區","long":"25.0620441","lat":"121.5137872","tel":"0266366559","company":"其他","cupName":"uCup"},{"name":"全聯高雄鼎力門市","address":"高雄市三民區鼎力路243號","city":"高雄市","area":"三民區","long":"22.6685028","lat":"120.3232245","tel":"073422782","company":"其他","cupName":"uCup"},{"name":"Cow Banana","address":"台北市文山區萬壽路5號","city":"台北市","area":"文山區","long":"24.9879002","lat":"121.5758095","tel":"0222340101","company":"其他","cupName":"uCup"},{"name":"全聯高雄覺民門市","address":"高雄市三民區覺民路617號","city":"高雄市","area":"三民區","long":"22.6410407","lat":"120.3283654","tel":"073821350","company":"其他","cupName":"uCup"},{"name":"龍泉居","address":"台北市大安區龍泉街23號","city":"台北市","area":"大安區","long":"25.0245031","lat":"121.5295719","tel":"0223627124","company":"其他","cupName":"uCup"},{"name":"茶壜 師大店","address":"台北市大安區師大路49巷5號","city":"台北市","area":"大安區","long":"25.0243811","lat":"121.5289086","tel":"0223688759","company":"其他","cupName":"uCup"},{"name":"小人物咖啡 Nobody about cafe","address":"台北市大安區復興南路二段368號","city":"台北市","area":"大安區","long":"25.0216322","lat":"121.5431323","tel":"0968976860","company":"其他","cupName":"uCup"}]